ACCELEROMETER X (m/s²),ACCELEROMETER Y (m/s²),ACCELEROMETER Z (m/s²),GRAVITY X (m/s²),GRAVITY Y (m/s²),GRAVITY Z (m/s²),LINEAR ACCELERATION X (m/s²),LINEAR ACCELERATION Y (m/s²),LINEAR ACCELERATION Z (m/s²),GYROSCOPE X (rad/s),GYROSCOPE Y (rad/s),GYROSCOPE Z (rad/s),LIGHT (lux),MAGNETIC FIELD X (μT),MAGNETIC FIELD Y (μT),MAGNETIC FIELD Z (μT),ORIENTATION Z (azimuth °),ORIENTATION X (pitch °),ORIENTATION Y (roll °),PROXIMITY (i),ATMOSPHERIC PRESSURE (hPa),TEMPERATURE (F),RELATIVE HUMIDITY (%),SOUND LEVEL (dB),LOCATION Latitude : ,LOCATION Longitude : ,LOCATION Altitude ( m),LOCATION Altitude-google ( m),LOCATION Altitude-atmospheric pressure ( m),LOCATION Speed ( Kmh),LOCATION Accuracy ( m),LOCATION ORIENTATION (°),Satellites in range,GPS NMEA,Time since start in ms ,YYYY-MO-DD HH-MI-SS_SSS
9.8474,-0.1472,0.0479,9.7618,-0.6998,0.6222,0.0855,0.5525,-0.5743,0.0365,-0.0579,0.0447,0,12.19,20.27,25.97,53.38,4.14,-86.27,3.1,991.65,82.9,19,69.922,40.049377,-80.60012,893.55,1086.234147,,130.5,38.709675,220.3,Dec-15,"$GPRMC,205500,A,4002.962513,N,08036.007088,W,70.5,220.3,150117,0.0,E,D*3A::$GPGSA,A,3,01,03,10,14,16,22,25,26,29,31,32,,1.3,0.9,0.8*3B::$GPGGA,205500,4002.962513,N,08036.007088,W,2,11,0.9,309.0,M,-32.0,M,,*78::$GPGSV,3,2,15,25,29,046,26,26,43,178,24,31,72,007,30,32,41,102,20*7B::$GPVTG,220.3,T,220.3,M,70.5,N,130.5,K,D*13::$GLGSV,1,1,15,66,75,317,22,76,76,306,19,75,33,033,26*5D",15010009,2017-01-15 15:55:00:740
9.2129,-0.5908,0.835,9.7467,-0.7257,0.8038,-0.5338,0.135,0.0312,0.0322,-0.0362,0.0584,0,12.32,22.5,26.92,48.43,4.24,-85.29,3.1,993.89,82.9,18.9,70.356,40.046974,-80.602875,845.16,961.2182072,,127.8,45.16129,218.6,Dec-15,"$GPRMC,205510,A,4002.818426,N,08036.172216,W,69.0,218.6,150117,0.0,E,D*35::$GPGSA,A,3,01,03,10,14,16,22,25,26,29,31,32,,1.4,1.1,0.8*35::$GPGGA,205510,4002.818426,N,08036.172216,W,2,11,1.1,294.0,M,-32.0,M,,*78::$GPGSV,3,1,15,03,35,305,19,14,66,074,29,16,15,191,30,22,45,286,24*7B::$GPVTG,218.6,T,218.6,M,69.0,N,127.8,K,D*15::$GLGSV,1,1,15,66,75,317,19,76,76,306,17,75,33,033,27*5A",15020007,2017-01-15 15:55:10:738
10.3705,-0.9349,1.585,9.7388,-0.6314,0.9632,0.6317,-0.3035,0.6218,5.00E-04,-0.0429,0.0755,0,13.26,20.38,31.96,54.66,3.66,-84.41,3.1,996.17,82.9,19.3,69.932,40.044582,-80.605515,777.42,961.2182072,,124.2,35.48387,220,Dec-15,"$GPRMC,205520,A,4002.675081,N,08036.330619,W,67.1,220.0,150117,0.0,E,D*37::$GPGSA,A,3,01,03,10,14,16,22,25,26,29,31,32,,1.3,0.9,0.8*3B::$GPGGA,205520,4002.675081,N,08036.330619,W,2,11,0.9,273.0,M,-32.0,M,,*78::$GPGSV,3,3,15,01,07,261,,10,07,161,,23,06,298,,29,08,088,*79::$GPVTG,220.0,T,220.0,M,67.1,N,124.2,K,D*13::$GLGSV,1,1,15,66,75,317,22,76,76,306,16,75,33,033,25*51",15030007,2017-01-15 15:55:20:738
9.8988,-0.2951,2.0614,9.5622,-0.4288,2.1331,0.3366,0.8848,-0.3625,-0.0215,-0.0408,0.0712,0,13.95,13.18,32.87,61.38,2.54,-77.42,3.1,998.32,82.9,19,70.33,40.04281,-80.6086,780.65,841.005582,,118.8,32.258064,247.4,Dec-15,"$GPRMC,205530,A,4002.568353,N,08036.515825,W,64.1,247.4,150117,0.0,E,D*33::$GPGSA,A,3,01,03,10,14,16,22,25,26,29,31,32,,1.2,0.9,0.8*3A::$GPGGA,205530,4002.568353,N,08036.515825,W,2,11,0.9,274.0,M,-32.0,M,,*7D::$GPGSV,3,3,15,32,41,102,25,10,07,161,,23,06,298,,29,08,088,*7A::$GPVTG,247.4,T,247.4,M,64.1,N,118.8,K,D*15::$GLGSV,1,1,15,66,75,317,26,76,76,306,19,75,33,033,25*5A",15040007,2017-01-15 15:55:30:738
9.7965,-1.4293,2.0309,9.4911,-1.477,1.9767,0.3053,0.0476,0.0542,-0.0215,-0.0218,0.0657,0,15.31,0.27,32.37,68.32,8.62,-78.23,3.1,999.34,82.9,19.2,70.173,40.04258,-80.61234,700,841.005582,,112.5,35.48387,276.5,Dec-15,"$GPRMC,205540,A,4002.554736,N,08036.740442,W,60.7,276.5,150117,0.0,E,D*32::$GPGSA,A,3,01,03,10,14,16,22,25,26,29,31,32,,1.2,0.9,0.8*3A::$GPGGA,205540,4002.554736,N,08036.740442,W,2,11,0.9,249.0,M,-32.0,M,,*73::$GPGSV,3,3,15,31,72,007,28,32,41,102,23,10,07,161,,29,08,088,*72::$GPVTG,276.5,T,276.5,M,60.7,N,112.5,K,D*10::$GLGSV,1,1,15,66,75,317,31,76,76,306,31,75,33,033,23*50",15050007,2017-01-15 15:55:40:738
9.8797,-0.5926,0.8583,9.7391,-0.9432,0.6564,-0.4933,0.3507,0.2019,0.0258,-0.049,0.0581,0,9.46,-2.9,29.57,88.28,5.55,-86.13,3.1,999.41,82.9,19,69.969,40.04365,-80.61578,677.42,770.9040615,,115.2,29.032257,293.6,Dec-15,"$GPRMC,205550,A,4002.619112,N,08036.947102,W,62.2,293.6,150117,0.0,E,D*3E::$GPGSA,A,3,01,03,10,14,16,22,25,26,29,31,32,,1.1,0.8,0.7*37::$GPGGA,205550,4002.619112,N,08036.947102,W,2,11,0.8,242.0,M,-32.0,M,,*7A::$GPGSV,3,3,15,29,08,088,18,31,72,007,24,32,41,102,28,10,07,161,*7C::$GPVTG,293.6,T,293.6,M,62.2,N,115.2,K,D*17::$GLGSV,1,1,15,66,75,317,32,76,76,306,32,75,33,033,17*57",15060008,2017-01-15 15:55:50:739
9.7456,-1.7795,-0.0215,9.6545,-1.7208,0.0025,0.0914,-0.0569,-0.0216,0.0842,-0.0551,0.0691,0,12.17,10.18,27.5,67.18,10.08,-89.95,3.1,999.74,82.9,19.1,71.031,40.04456,-80.61916,670.97,770.9040615,,108,35.48387,281.3,Dec-15,"$GPRMC,205600,A,4002.673452,N,08037.149757,W,58.3,281.3,150117,0.0,E,D*3A::$GPGSA,A,3,01,03,10,14,16,22,25,26,29,31,32,,1.1,0.8,0.7*37::$GPGGA,205600,4002.673452,N,08037.149757,W,2,11,0.8,240.0,M,-32.0,M,,*72::$GPGSV,3,1,15,01,07,261,17,03,35,305,29,14,66,074,29,16,15,191,23*74::$GPVTG,281.3,T,281.3,M,58.3,N,108.0,K,D*11::$GLGSV,1,1,15,66,75,317,13,76,76,306,20,75,33,033,19*59",15070010,2017-01-15 15:56:00:741
10.1107,-1.081,1.0259,9.7122,-0.7293,1.1454,0.3985,-0.3517,-0.1195,0.0325,-0.0331,0.0816,0,15.03,11.89,28.83,63.77,4.26,-83.27,3.1,1000.31,82.9,19.1,71.319,40.044247,-80.623116,648.39,755.510907,,110.7,32.258064,259.7,Dec-14,"$GPRMC,205611,A,4002.654735,N,08037.386673,W,59.8,259.7,150117,0.0,E,D*30::$GPGSA,A,3,01,03,10,14,16,22,25,26,29,31,32,,1.1,0.8,0.7*37::$GPGGA,205611,4002.654735,N,08037.386673,W,2,11,0.8,233.0,M,-32.0,M,,*77::$GPGSV,3,3,14,31,72,008,22,32,41,104,24,10,06,161,*45::$GPVTG,259.7,T,259.7,M,59.8,N,110.7,K,D*15::$GLGSV,1,1,14,66,75,317,21,76,76,306,25,75,33,033,18*5D",15080008,2017-01-15 15:56:10:739
9.6546,-1.4216,1.391,9.5991,-1.1597,1.6382,0.0556,-0.2619,-0.2471,-7.00E-04,-0.0347,0.0783,0,12.83,11.83,31.67,64.4,6.79,-80.32,3.1,1000.3,83,19.1,69.756,40.043808,-80.626465,645.16,755.510907,,97.2,32.258064,263.1,Dec-15,"$GPRMC,205621,A,4002.628364,N,08037.587953,W,52.5,263.1,150117,0.0,E,D*3B::$GPGSA,A,3,01,03,10,14,16,22,25,26,29,31,32,,1.2,0.9,0.8*3A::$GPGGA,205621,4002.628364,N,08037.587953,W,2,11,0.9,232.0,M,-32.0,M,,*75::$GPGSV,3,3,15,31,72,008,32,32,41,104,28,10,06,161,,23,06,298,*7D::$GPVTG,263.1,T,263.1,M,52.5,N,97.2,K,D*28::$GLGSV,1,1,15,66,75,317,32,76,76,306,30,75,33,033,17*55",15090007,2017-01-15 15:56:20:738
9.5571,-1.4341,0.993,9.5545,-1.5433,1.5812,0.0026,0.1244,-0.3361,0.0118,0.0072,0.0517,0,21.49,3.18,31.76,70.81,9.05,-80.6,3.1,999.97,82.9,19.1,69.286,40.04424,-80.62923,658.06,756.8802433,,99,32.258064,290,Dec-15,"$GPRMC,205630,A,4002.654360,N,08037.753459,W,53.5,290.0,150117,0.0,E,D*34::$GPGSA,A,3,01,03,10,14,16,22,25,26,29,31,32,,1.2,0.9,0.8*3A::$GPGGA,205630,4002.654360,N,08037.753459,W,2,11,0.9,236.0,M,-32.0,M,,*72::$GPGSV,3,3,15,29,09,088,22,31,72,008,23,32,41,104,29,10,06,161,*7A::$GPVTG,290.0,T,290.0,M,53.5,N,99.0,K,D*25::$GLGSV,1,1,15,66,75,317,34,76,76,306,31,75,33,033,22*54",15100007,2017-01-15 15:56:30:738
9.763,-1.7502,0.5842,9.6489,-1.6639,0.548,0.114,-0.0863,0.0362,0.0799,-0.0475,0.0682,0,15.71,7.96,25.88,66.6,9.74,-86.72,3.1,999.52,82.9,19.2,69.484,40.045364,-80.63245,674.19,756.8802433,,95.4,32.258064,292,Dec-15,"$GPRMC,205641,A,4002.721806,N,08037.946683,W,51.5,292.0,150117,0.0,E,D*35::$GPGSA,A,3,01,03,10,14,16,22,25,26,29,31,32,,1.1,0.8,0.7*37::$GPGGA,205641,4002.721806,N,08037.946683,W,2,11,0.8,241.0,M,-32.0,M,,*72::$GPGSV,3,3,15,29,09,088,19,31,72,008,28,32,41,104,30,10,06,161,*71::$GPVTG,292.0,T,292.0,M,51.5,N,95.4,K,D*2F::$GLGSV,1,1,15,66,75,317,24,76,76,306,26,75,33,033,22*53",15110007,2017-01-15 15:56:40:738
9.9072,-0.8122,0.9122,9.7372,-0.7425,0.8979,0.17,-0.0698,0.0143,0.035,-0.0218,0.0667,0,14.97,10.1,30.61,69.01,4.34,-84.73,3.1,999.3,82.9,19.2,69.103,40.04584,-80.63547,693.55,777.9490865,,106.2,38.709675,279.6,Dec-15,"$GPRMC,205650,A,4002.750314,N,08038.127814,W,57.3,279.6,150117,0.0,E,D*38::$GPGSA,A,3,01,03,10,14,16,22,25,26,29,31,32,,1.1,0.8,0.7*37::$GPGGA,205650,4002.750314,N,08038.127814,W,2,11,0.8,247.0,M,-32.0,M,,*7A::$GPGSV,3,3,15,29,09,088,27,31,72,008,25,32,41,104,19,10,06,161,*7A::$GPVTG,279.6,T,279.6,M,57.3,N,106.2,K,D*12::$GLGSV,1,1,15,66,75,317,31,76,76,306,29,75,33,033,13*5A",15120007,2017-01-15 15:56:50:738
9.6426,-1.0157,0.8416,9.6897,-1.2806,0.8004,-0.047,0.2649,0.0412,0.0271,-0.0215,0.0639,0,14.21,10.35,29.26,65.76,7.54,-85.28,3.1,998.79,83,19.2,69.389,40.046295,-80.638824,709.68,777.9490865,,108,35.48387,280.1,Dec-15,"$GPRMC,205700,A,4002.777675,N,08038.329630,W,58.3,280.1,150117,0.0,E,D*31::$GPGSA,A,3,01,03,10,14,16,22,25,26,29,31,32,,1.1,0.8,0.7*37::$GPGGA,205700,4002.777675,N,08038.329630,W,2,11,0.8,252.0,M,-32.0,M,,*79::$GPGSV,3,3,15,29,09,088,28,31,72,008,25,32,41,104,16,10,06,161,*7A::$GPVTG,280.1,T,280.1,M,58.3,N,108.0,K,D*11::$GLGSV,1,1,15,66,77,314,30,76,75,312,29,75,32,033,21*5C",15130008,2017-01-15 15:57:00:739
9.7935,-1.0265,0.2777,9.7601,-0.8994,0.3189,0.0334,-0.1272,-0.0411,0.0683,-0.0283,0.0767,0,15.05,14.2,27.92,60.75,5.26,-88.13,3.1,998.29,83,19,69.418,40.04657,-80.64222,706.45,804.8553178,,99.9,35.48387,269.8,Dec-15,"$GPRMC,205710,A,4002.794150,N,08038.532880,W,53.9,269.8,150117,0.0,E,D*3B::$GPGSA,A,3,01,03,10,14,16,22,25,26,29,31,32,,1.2,1.0,0.7*3D::$GPGGA,205710,4002.794150,N,08038.532880,W,2,11,1.0,251.0,M,-32.0,M,,*76::$GPGSV,3,3,15,29,09,088,24,31,72,008,15,32,41,104,25,10,06,161,*75::$GPVTG,269.8,T,269.8,M,53.9,N,99.9,K,D*20::$GLGSV,1,1,15,66,77,314,23,76,75,312,17,75,32,033,27*55",15140007,2017-01-15 15:57:10:738
9.5894,-1.1187,0.9691,9.7288,-1.1312,0.4902,-0.1395,0.0125,0.4789,0.057,-0.0478,0.0615,0,15.22,17.85,26.19,51.91,6.64,-87.13,3.1,998.32,82.9,19.2,69.89,40.04604,-80.64525,696.77,804.8553178,,95.4,32.258064,250.2,Dec-15,"$GPRMC,205720,A,4002.762470,N,08038.714798,W,51.5,250.2,150117,0.0,E,D*38::$GPGSA,A,3,01,03,10,14,16,22,25,26,29,31,32,,1.1,0.8,0.7*37::$GPGGA,205720,4002.762470,N,08038.714798,W,2,11,0.8,248.0,M,-32.0,M,,*7A::$GPGSV,3,3,15,29,09,088,26,31,72,008,26,32,41,104,25,10,06,161,*77::$GPVTG,250.2,T,250.2,M,51.5,N,95.4,K,D*2F::$GLGSV,1,1,15,66,77,314,25,76,75,312,26,75,32,033,25*53",15150007,2017-01-15 15:57:20:738
9.9629,-1.0008,0.9888,9.7184,-0.9543,0.9011,0.2445,-0.0465,0.0877,0.0356,-0.0331,0.0743,0,15.67,17.7,28.98,54.25,5.58,-84.7,3.1,999.14,82.9,19.3,69.039,40.045017,-80.648125,674.19,804.8553178,,99.9,29.032257,244.9,Dec-15,"$GPRMC,205730,A,4002.701104,N,08038.887616,W,53.9,244.9,150117,0.0,E,D*38::$GPGSA,A,3,01,03,10,14,16,22,25,26,29,31,32,,1.2,0.9,0.8*3A::$GPGGA,205730,4002.701104,N,08038.887616,W,2,11,0.9,241.0,M,-32.0,M,,*72::$GPGSV,3,3,15,29,09,088,25,31,72,008,22,32,41,104,28,10,06,161,*7D::$GPVTG,244.9,T,244.9,M,53.9,N,99.9,K,D*20::$GLGSV,1,1,15,66,77,314,19,76,75,312,16,75,32,033,29*53",15160007,2017-01-15 15:57:30:738
9.815,-0.9786,1.6215,9.5642,-1.0815,1.878,0.2508,0.1029,-0.2565,-0.0102,-0.0234,0.0615,0,15.12,13.44,32.89,62.66,6.33,-78.89,3.1,1000.17,83,19.3,69.327,40.04413,-80.65146,654.84,787.6002706,,99.9,32.258064,260.7,Dec-15,"$GPRMC,205741,A,4002.647567,N,08039.087359,W,53.9,260.7,150117,0.0,E,D*33::$GPGSA,A,3,01,03,10,14,16,22,25,26,29,31,32,,1.1,0.8,0.7*37::$GPGGA,205741,4002.647567,N,08039.087359,W,2,11,0.8,235.0,M,-32.0,M,,*73::$GPGSV,3,3,15,29,09,088,15,31,72,008,22,32,41,104,25,10,06,161,*73::$GPVTG,260.7,T,260.7,M,53.9,N,99.9,K,D*20::$GLGSV,1,1,15,66,77,314,25,76,75,312,24,75,32,033,17*50",15170008,2017-01-15 15:57:40:739
10.3358,-1.2396,1.6203,9.5765,-0.9763,1.873,0.7593,-0.2633,-0.2528,-0.0252,-0.0478,0.0734,0,13.67,4.39,28.36,76.34,5.68,-78.87,3.1,1001.17,83.1,19.3,69.456,40.044415,-80.654655,629.03,772.8262784,,99.9,29.032257,288.4,Dec-15,"$GPRMC,205751,A,4002.665064,N,08039.279352,W,53.9,288.4,150117,0.0,E,D*39::$GPGSA,A,3,01,03,10,14,16,22,25,26,29,31,32,,1.1,0.8,0.7*37::$GPGGA,205751,4002.665064,N,08039.279352,W,2,11,0.8,227.0,M,-32.0,M,,*7F::$GPGSV,3,3,15,29,09,087,18,31,71,011,25,32,40,104,30,10,06,161,*78::$GPVTG,288.4,T,288.4,M,53.9,N,99.9,K,D*20::$GLGSV,1,1,15,66,77,313,30,76,75,313,31,75,32,035,28*5C",15180007,2017-01-15 15:57:50:738
10.8403,-1.998,0.8619,9.5776,-1.906,0.8979,1.2627,-0.092,-0.036,0.0216,-0.0527,0.0544,0,12.64,-3.81,21.03,95.79,11.25,-84.6,3.1,1000.98,83,19.4,70.396,40.0456,-80.65716,622.58,772.8262784,,106.2,29.032257,306.4,Dec-15,"$GPRMC,205800,A,4002.736076,N,08039.429802,W,57.3,306.4,150117,0.0,E,D*32::$GPGSA,A,3,01,03,10,14,16,22,25,26,29,31,32,,1.0,0.8,0.7*36::$GPGGA,205800,4002.736076,N,08039.429802,W,2,11,0.8,225.0,M,-32.0,M,,*7F::$GPGSV,3,3,15,26,45,177,21,29,09,087,21,31,71,011,24,32,40,104,18*7F::$GPVTG,306.4,T,306.4,M,57.3,N,106.2,K,D*12::$GLGSV,1,1,15,66,77,313,32,76,75,313,30,75,32,035,24*53",15190007,2017-01-15 15:58:00:738
9.7282,-1.5257,1.1803,9.6533,-1.5329,0.7963,0.0749,0.0071,0.384,0.0261,-0.0258,0.0661,0,-0.87,3.42,-0.8,341.88,8.99,-85.28,3.1,1000.74,83,19.3,71.554,40.047268,-80.66007,622.58,726.5867409,,113.4,35.48387,306.1,Dec-15,"$GPRMC,205810,A,4002.836083,N,08039.604387,W,61.2,306.1,150117,0.0,E,D*3C::$GPGSA,A,3,01,03,10,14,16,22,25,26,29,31,32,,1.2,0.9,0.8*3A::$GPGGA,205810,4002.836083,N,08039.604387,W,2,11,0.9,225.0,M,-32.0,M,,*71::$GPGSV,3,2,15,16,17,191,23,22,45,284,31,23,08,299,26,25,28,046,21*7B::$GPVTG,306.1,T,306.1,M,61.2,N,113.4,K,D*14::$GLGSV,1,1,15,66,77,313,30,76,75,313,28,75,32,035,18*57",15200008,2017-01-15 15:58:10:739
8.7885,-1.0295,-0.3735,9.731,-1.1686,-0.3345,-0.9425,0.1391,-0.039,0.0906,-0.0304,0.0551,0,24.03,7.16,70.46,80.58,6.85,-91.93,3.1,1000.59,83,19.3,71.624,40.049,-80.66355,625.81,726.5867409,,113.4,32.258064,297.9,Dec-15,"$GPRMC,205821,A,4002.939852,N,08039.812915,W,61.2,297.9,150117,0.0,E,D*3D::$GPGSA,A,3,01,03,10,14,16,22,25,26,29,31,32,,1.1,0.8,0.7*37::$GPGGA,205820,4002.931919,N,08039.792670,W,2,11,0.8,227.0,M,-32.0,M,,*7E::$GPGSV,3,3,15,26,45,177,15,29,09,087,19,31,71,011,27,32,40,104,26*7D::$GPVTG,297.9,T,297.9,M,61.2,N,113.4,K,D*14::$GLGSV,1,1,15,66,77,313,32,76,75,313,29,75,32,035,28*57",15210007,2017-01-15 15:58:20:738
8.7071,-0.9661,1.5892,9.5662,-1.8657,1.0847,-0.8591,0.8997,0.5045,0.0399,0.0127,0.0896,0,15.92,10.16,71.98,78.34,10.97,-83.53,3.1,999.96,83,19.3,73.284,40.049576,-80.66683,635.48,681.1190037,,119.7,32.258064,277.8,Dec-15,"$GPRMC,205830,A,4002.974508,N,08040.010186,W,64.6,277.8,150117,0.0,E,D*3E::$GPGSA,A,3,01,03,10,14,16,22,25,26,29,31,32,,1.0,0.8,0.7*36::$GPGGA,205830,4002.974508,N,08040.010186,W,2,11,0.8,229.0,M,-32.0,M,,*71::$GPGSV,3,3,15,26,45,177,19,29,09,087,28,31,71,011,22,32,40,104,22*72::$GPVTG,277.8,T,277.8,M,64.6,N,119.7,K,D*1C::$GLGSV,1,1,15,66,77,313,31,76,75,313,23,75,32,035,27*51",15220008,2017-01-15 15:58:30:739
9.8438,-1.5951,0.4741,9.5623,-1.9951,0.8673,0.2815,0.4,-0.3933,0.0307,-0.0313,0.056,0,18.4,9.19,29.05,62.06,11.77,-84.8,3.1,997.39,83,19.3,71.855,40.050037,-80.67085,683.87,681.1190037,,129.6,29.032257,278.2,Dec-15,"$GPRMC,205840,A,4003.002135,N,08040.251279,W,70.0,278.2,150117,0.0,E,D*38::$GPGSA,A,3,01,03,10,14,16,22,25,26,29,31,32,,1.2,0.9,0.8*3A::$GPGGA,205840,4003.002135,N,08040.251279,W,2,11,0.9,244.0,M,-32.0,M,,*7B::$GPGSV,3,3,15,26,45,177,27,29,09,087,24,31,71,011,29,32,40,104,21*7B::$GPVTG,278.2,T,278.2,M,70.0,N,129.6,K,D*1D::$GLGSV,1,1,15,66,77,313,32,76,75,313,30,75,32,035,16*52",15230008,2017-01-15 15:58:40:739
9.5583,-1.6873,0.653,9.6222,-1.6021,1.0083,-0.064,-0.0852,-0.3553,0.0353,-0.0041,0.063,0,-0.83,14.81,58.98,75.1,9.4,-84.02,3.1,994.97,83,19.3,71.123,40.050465,-80.674995,754.84,838.0973507,,124.2,29.032257,278.2,Dec-15,"$GPRMC,205850,A,4003.027860,N,08040.499526,W,67.1,278.2,150117,0.0,E,D*3F::$GPGSA,A,3,01,03,10,14,16,22,25,26,29,31,32,,1.2,0.9,0.8*3A::$GPGGA,205850,4003.027860,N,08040.499526,W,2,11,0.9,266.0,M,-32.0,M,,*7B::$GPGSV,3,2,15,16,17,191,16,22,45,284,30,23,08,299,20,25,28,046,17*7F::$GPVTG,278.2,T,278.2,M,67.1,N,124.2,K,D*13::$GLGSV,1,1,15,66,77,313,27,76,75,313,29,75,32,035,13*5B",15240007,2017-01-15 15:58:50:738
9.748,-1.7861,0.3017,9.6552,-1.6954,0.2697,0.0928,-0.0907,0.032,0.0582,-0.0249,0.0642,0,11.97,14.69,27.77,58.44,9.96,-88.4,3.1,992.61,83,19.3,70.89,40.05068,-80.678925,825.81,838.0973507,,119.7,32.258064,269.9,Dec-15,"$GPRMC,205900,A,4003.040910,N,08040.735613,W,64.6,269.9,150117,0.0,E,D*33::$GPGSA,A,3,01,03,10,14,16,22,25,26,29,31,32,,1.2,1.0,0.7*3D::$GPGGA,205900,4003.040910,N,08040.735613,W,2,11,1.0,288.0,M,-32.0,M,,*70::$GPGSV,3,3,15,31,71,011,19,32,40,104,22,10,06,161,,16,17,191,*78::$GPVTG,269.9,T,269.9,M,64.6,N,119.7,K,D*1C::$GLGSV,1,1,15,66,77,313,25,76,75,313,24,75,32,035,18*5F",15250008,2017-01-15 15:59:00:739
9.9641,-1.4826,0.3484,9.6337,-1.7605,0.5125,0.3304,0.2779,-0.1641,0.0536,-0.049,0.0532,0,13.32,17.84,24.13,50.11,10.38,-86.95,3.1,990.29,83.1,19.3,71.347,40.050343,-80.682686,867.74,977.9935635,,116.1,29.032257,259.5,Dec-15,"$GPRMC,205910,A,4003.020687,N,08040.961509,W,62.7,259.5,150117,0.0,E,D*3A::$GPGSA,A,3,01,03,10,14,16,22,25,26,29,31,32,,1.1,0.8,0.7*37::$GPGGA,205910,4003.020687,N,08040.961509,W,2,11,0.8,301.0,M,-32.0,M,,*78::$GPGSV,3,3,15,31,71,011,20,32,40,104,27,10,06,161,,23,08,299,*74::$GPVTG,259.5,T,259.5,M,62.7,N,116.1,K,D*12::$GLGSV,1,1,15,66,77,313,22,76,75,313,19,75,32,035,16*58",15260007,2017-01-15 15:59:10:738
9.2889,-1.5903,1.0205,9.5311,-2.1002,0.9584,-0.2422,0.5098,0.0621,0.0286,-0.0292,0.0517,0,15.23,18.41,31.52,54.72,12.39,-84.27,3.1,987.84,82.9,19.4,71.302,40.04952,-80.68666,916.13,977.9935635,,116.1,29.032257,253.9,Dec-15,"$GPRMC,205921,A,4002.971215,N,08041.199862,W,62.7,253.9,150117,0.0,E,D*33::$GPGSA,A,3,01,03,10,14,16,22,25,26,29,31,32,,1.1,0.8,0.7*37::$GPGGA,205921,4002.971215,N,08041.199862,W,2,11,0.8,316.0,M,-32.0,M,,*71::$GPGSV,3,3,15,31,71,011,27,32,40,104,30,10,06,161,,23,08,299,*75::$GPVTG,253.9,T,253.9,M,62.7,N,116.1,K,D*12::$GLGSV,1,1,15,66,77,313,28,76,75,313,12,75,32,035,20*5C",15270007,2017-01-15 15:59:20:738
10.2077,-1.1696,2.3104,9.4748,-1.896,1.6743,0.7329,0.7264,0.6361,-0.0105,-0.0344,0.067,0,16.94,16.69,30.36,51.78,11.21,-80.01,3.1,985.58,83,19.4,71.17,40.048725,-80.69027,974.19,1109.690931,,114.3,32.258064,256,Dec-15,"$GPRMC,205931,A,4002.923489,N,08041.416411,W,61.7,256.0,150117,0.0,E,D*33::$GPGSA,A,3,01,03,10,14,16,22,25,26,29,31,32,,1.1,0.8,0.7*37::$GPGGA,205931,4002.923489,N,08041.416411,W,2,11,0.8,334.0,M,-32.0,M,,*7E::$GPGSV,3,3,15,31,71,012,29,32,39,105,17,10,05,161,,23,08,299,*71::$GPVTG,256.0,T,256.0,M,61.7,N,114.3,K,D*11::$GLGSV,1,1,15,66,77,313,29,76,75,313,23,75,32,035,18*54",15280007,2017-01-15 15:59:30:738
10.407,-1.5856,2.2589,9.523,-1.2168,2.0004,0.884,-0.3688,0.2585,-0.0157,-0.0258,0.0648,0,13.21,6.86,26.97,68.8,7.13,-78.14,3.1,984.22,83,19.3,69.948,40.048813,-80.693565,1025.81,1109.690931,,109.8,35.48387,283.9,Dec-15,"$GPRMC,205940,A,4002.928692,N,08041.614041,W,59.3,283.9,150117,0.0,E,D*39::$GPGSA,A,3,01,03,10,14,16,22,25,26,29,31,32,,1.2,1.0,0.7*3D::$GPGGA,205940,4002.928692,N,08041.614041,W,2,11,1.0,350.0,M,-32.0,M,,*71::$GPGSV,3,1,15,01,06,260,20,03,36,302,28,14,64,078,25,16,18,191,18*72::$GPVTG,283.9,T,283.9,M,59.3,N,109.8,K,D*19::$GLGSV,1,1,15,66,77,313,33,76,75,313,31,75,32,035,23*54",15290008,2017-01-15 15:59:40:739
10.067,-0.8996,2.2984,9.5756,-0.6865,2.0019,0.4914,-0.2132,0.2966,-0.013,-0.0383,0.0749,0,13.74,-2.38,14.76,93.97,4.01,-78.19,3.1,985.28,82.9,19.3,69.912,40.050247,-80.69658,1003.23,1154.957971,,109.8,29.032257,314.1,Dec-15,"$GPRMC,205950,A,4003.014902,N,08041.794638,W,59.3,314.1,150117,0.0,E,D*3F::$GPGSA,A,3,01,03,10,14,16,22,25,26,29,31,32,,1.0,0.8,0.7*36::$GPGGA,205950,4003.014902,N,08041.794638,W,2,11,0.8,343.0,M,-32.0,M,,*7B::$GPGSV,3,2,15,16,18,191,28,22,45,282,30,23,08,299,24,25,27,045,26*71::$GPVTG,314.1,T,314.1,M,59.3,N,109.8,K,D*19::$GLGSV,1,1,15,66,78,310,26,76,75,319,29,75,31,035,29*56",15300007,2017-01-15 15:59:50:738
9.7618,-1.1055,-0.6482,9.7108,-0.9041,-1.0264,0.051,-0.2014,0.3782,0.0964,-0.0524,0.0813,0,11.09,-2.12,22.2,92.85,5.25,-96.01,3.1,987.54,82.9,19.5,69.949,40.052547,-80.698654,983.87,1154.957971,,112.5,32.258064,325,Dec-15,"$GPRMC,210000,A,4003.152816,N,08041.919115,W,60.7,325.0,150117,0.0,E,D*3E::$GPGSA,A,3,01,03,10,14,16,22,25,26,29,31,32,,1.2,0.9,0.8*3A::$GPGGA,210000,4003.152816,N,08041.919115,W,2,11,0.9,337.0,M,-32.0,M,,*75::$GPGSV,3,3,15,26,46,177,30,29,09,087,26,31,71,012,20,32,39,105,23*7B::$GPVTG,325.0,T,325.0,M,60.7,N,112.5,K,D*10::$GLGSV,1,1,15,66,78,310,30,76,75,319,31,75,31,035,22*53",15310007,2017-01-15 16:00:00:738
9.4655,-0.8775,-0.7661,9.7405,-0.7202,-0.88,-0.275,-0.1573,0.1138,0.0933,-0.0371,0.0822,0,12.33,7.02,19.44,71.4,4.19,-95.17,3.1,989.94,82.9,19.4,70.841,40.05416,-80.702095,938.71,1032.118511,,117,35.48387,284.3,Dec-15,"$GPRMC,210011,A,4003.249622,N,08042.125593,W,63.2,284.3,150117,0.0,E,D*3F::$GPGSA,A,3,01,03,10,14,16,22,25,26,29,31,32,,1.2,0.9,0.8*3A::$GPGGA,210011,4003.249622,N,08042.125593,W,2,11,0.9,323.0,M,-32.0,M,,*7E::$GPGSV,3,3,15,26,46,177,24,31,71,012,16,32,39,105,19,29,09,087,*76::$GPVTG,284.3,T,284.3,M,63.2,N,117.0,K,D*16::$GLGSV,1,1,15,66,78,310,26,76,75,319,26,75,31,035,20*50",15320007,2017-01-15 16:00:10:738
9.7252,-0.674,-0.422,9.7588,-0.7182,-0.6487,-0.0335,0.0442,0.2267,0.0701,-0.0347,0.0734,0,12.57,15.49,17.84,49.97,4.19,-93.85,3.1,992.11,83,19.4,70.464,40.053944,-80.70542,874.19,1032.118511,,117,32.258064,250.8,Dec-15,"$GPRMC,210020,A,4003.236536,N,08042.325444,W,63.2,250.8,150117,0.0,E,D*38::$GPGSA,A,3,01,03,10,14,16,22,25,26,29,31,32,,1.1,0.8,0.7*37::$GPGGA,210020,4003.236536,N,08042.325444,W,2,11,0.8,303.0,M,-32.0,M,,*78::$GPGSV,3,3,15,26,46,177,31,29,09,087,14,31,71,012,18,32,39,105,23*70::$GPVTG,250.8,T,250.8,M,63.2,N,117.0,K,D*16::$GLGSV,1,1,15,66,78,310,16,76,75,319,19,75,31,035,18*54",15330008,2017-01-15 16:00:20:739
10.0862,-0.65,1.4246,9.6898,-0.7442,1.3129,0.3963,0.0941,0.1117,0.0127,-0.0273,0.077,0,16.96,15.9,23.43,51.27,4.34,-82.33,3.1,994.66,83,19.4,70.505,40.05255,-80.70885,800,896.1435768,,120.6,29.032257,241.7,Dec-15,"$GPRMC,210030,A,4003.153041,N,08042.530921,W,65.1,241.7,150117,0.0,E,D*3A::$GPGSA,A,3,01,03,10,14,16,22,25,26,29,31,32,,1.2,0.9,0.8*3A::$GPGGA,210030,4003.153041,N,08042.530921,W,2,11,0.9,280.0,M,-32.0,M,,*7B::$GPGSV,3,3,15,29,09,087,29,31,71,012,28,32,39,105,28,10,05,161,*71::$GPVTG,241.7,T,241.7,M,65.1,N,120.6,K,D*11::$GLGSV,1,1,15,66,78,310,30,76,75,319,23,75,31,035,28*5A",15340008,2017-01-15 16:00:30:739
9.5026,-0.5441,2.0321,9.6076,-0.6812,1.844,0.056,0.2849,-0.2184,-0.0059,-0.028,0.0593,0,13.19,10.4,21.73,57.6,4,-79.12,3.1,997.08,83,19.4,70.557,40.051613,-80.7126,732.26,896.1435768,,122.4,29.032257,261.6,Dec-15,"$GPRMC,210040,A,4003.096790,N,08042.755982,W,66.1,261.6,150117,0.0,E,D*36::$GPGSA,A,3,01,03,10,14,16,22,25,26,29,31,32,,1.1,0.8,0.7*37::$GPGGA,210040,4003.096790,N,08042.755982,W,2,11,0.8,259.0,M,-32.0,M,,*72::$GPGSV,3,3,15,31,71,012,24,32,39,105,24,10,05,161,,23,08,299,*7C::$GPVTG,261.6,T,261.6,M,66.1,N,122.4,K,D*12::$GLGSV,1,1,15,66,78,309,25,76,75,319,17,75,31,035,19*53",15350007,2017-01-15 16:00:40:738
10.1359,-1.5042,1.4168,9.6505,-1.4788,0.9226,0.4853,-0.0253,0.4942,0.0371,-0.0191,0.0636,0,63.56,5.02,-37.15,288.09,8.67,-84.54,3.1,998.94,83,19.3,73.225,40.051666,-80.71656,722.58,896.1435768,,119.7,41.935486,273.7,Dec-15,"$GPRMC,210050,A,4003.100106,N,08042.993803,W,64.6,273.7,150117,0.0,E,D*3B::$GPGSA,A,3,01,03,10,14,16,22,25,26,29,31,32,,1.0,0.8,0.7*36::$GPGGA,210050,4003.100106,N,08042.993803,W,2,11,0.8,256.0,M,-32.0,M,,*77::$GPGSV,3,3,15,26,46,177,28,29,09,087,20,31,71,012,22,32,39,105,25*70::$GPVTG,273.7,T,273.7,M,64.6,N,119.7,K,D*1C::$GLGSV,1,1,15,66,78,309,30,76,75,319,24,75,31,035,22*5F",15360007,2017-01-15 16:00:50:738
9.9599,-1.9375,0.6566,9.7364,-1.0867,0.4376,0.2235,-0.8508,0.2191,0.0512,-0.046,0.074,0,60.49,7.33,-22.58,297.71,6.36,-87.43,3.1,1000.17,83,19.4,74.407,40.051422,-80.72107,667.74,750.7236622,,122.4,32.258064,261.4,Dec-15,"$GPRMC,210101,A,4003.085552,N,08043.264441,W,66.1,261.4,150117,0.0,E,D*3A::$GPGSA,A,3,01,03,10,14,16,22,25,26,29,31,32,,1.1,0.8,0.7*37::$GPGGA,210101,4003.085552,N,08043.264441,W,2,11,0.8,239.0,M,-32.0,M,,*7A::$GPGSV,3,3,15,26,46,177,26,29,09,087,16,31,71,012,25,32,39,105,24*7D::$GPVTG,261.4,T,261.4,M,66.1,N,122.4,K,D*12::$GLGSV,1,1,15,66,78,309,25,76,75,319,24,75,31,035,20*59",15370007,2017-01-15 16:01:00:738
10.4573,-0.9194,0.7985,9.7156,-1.0261,0.8513,0.7417,0.1067,-0.0528,0.0393,-0.0298,0.0489,0,41.2,6.07,-16.35,297.35,6.01,-84.99,3.1,1001.26,83,19.4,71.166,40.050816,-80.724945,629.03,750.7236622,,122.4,29.032257,258.1,Dec-15,"$GPRMC,210111,A,4003.048850,N,08043.496627,W,66.1,258.1,150117,0.0,E,D*33::$GPGSA,A,3,01,03,10,14,16,22,25,26,29,31,32,,1.0,0.8,0.7*36::$GPGGA,210111,4003.048850,N,08043.496627,W,2,11,0.8,227.0,M,-32.0,M,,*73::$GPGSV,3,3,15,26,47,177,19,29,10,085,25,31,70,014,24,32,39,105,22*7A::$GPVTG,258.1,T,258.1,M,66.1,N,122.4,K,D*12::$GLGSV,1,1,15,66,78,309,22,76,75,319,15,75,31,035,21*5D",15380007,2017-01-15 16:01:10:738
9.997,-0.6488,0.8679,9.7385,-0.8266,0.8053,0.2585,0.1778,0.0626,0.035,-0.0298,0.0673,0,-127.73,30.96,-14.26,350.36,4.84,-85.27,3.1,1001.66,82.9,19.4,72.159,40.050232,-80.728516,609.68,656.3019951,,124.2,29.032257,258,Dec-15,"$GPRMC,210120,A,4003.013916,N,08043.710736,W,67.1,258.0,150117,0.0,E,D*30::$GPGSA,A,3,01,03,10,14,16,22,25,26,29,31,32,,1.0,0.8,0.7*36::$GPGGA,210120,4003.013916,N,08043.710736,W,2,11,0.8,221.0,M,-32.0,M,,*76::$GPGSV,3,3,15,26,47,177,28,29,10,085,25,31,70,014,26,32,39,105,24*7C::$GPVTG,258.0,T,258.0,M,67.1,N,124.2,K,D*13::$GLGSV,1,1,15,66,78,309,29,76,75,319,20,75,31,035,20*51",15390007,2017-01-15 16:01:20:738
9.7055,-1.1977,0.5938,9.6968,-1.2997,0.6737,0.0087,0.102,-0.08,0.0237,-0.0368,0.067,0,26.06,18.11,83.13,74.78,7.62,-86.03,3.1,1001.61,83.2,19.4,71.517,40.04962,-80.73234,606.45,656.3019951,,118.8,29.032257,258.5,Dec-15,"$GPRMC,210130,A,4002.977231,N,08043.940208,W,64.1,258.5,150117,0.0,E,D*30::$GPGSA,A,3,01,03,10,14,16,22,25,26,29,31,32,,1.0,0.8,0.7*36::$GPGGA,210130,4002.977231,N,08043.940208,W,2,11,0.8,220.0,M,-32.0,M,,*71::$GPGSV,3,3,15,26,47,177,18,29,10,085,26,31,70,014,27,32,39,105,18*72::$GPVTG,258.5,T,258.5,M,64.1,N,118.8,K,D*15::$GLGSV,1,1,15,66,78,309,21,76,75,319,15,75,31,035,21*5E",15400008,2017-01-15 16:01:30:739
9.6534,-0.9846,1.4814,9.6787,-1.115,1.1177,-0.0253,0.1303,0.3637,0.0277,-0.0612,0.088,0,12.93,14.48,26.02,57.15,6.53,-83.41,3.1,1002.07,82.9,19.4,71.067,40.048996,-80.73622,587.1,668.5490755,,121.5,29.032257,258.1,Dec-15,"$GPRMC,210140,A,4002.939778,N,08044.173201,W,65.6,258.1,150117,0.0,E,D*31::$GPGSA,A,3,01,03,10,14,16,22,25,26,29,31,32,,1.0,0.8,0.7*36::$GPGGA,210140,4002.939778,N,08044.173201,W,2,11,0.8,214.0,M,-32.0,M,,*75::$GPGSV,3,3,15,26,47,177,25,29,10,085,24,31,70,014,27,32,39,105,24*71::$GPVTG,258.1,T,258.1,M,65.6,N,121.5,K,D*14::$GLGSV,1,1,15,66,78,309,28,76,75,319,22,75,31,035,21*53",15410007,2017-01-15 16:01:40:738
10.2855,-2.2092,1.4072,9.4994,-2.1811,1.084,0.7861,-0.0281,0.3232,0.0225,-0.027,0.0661,0,13.97,16.25,26.95,52.49,12.85,-83.49,3.1,1000.92,82.9,19.4,71.274,40.04833,-80.74002,596.77,668.5490755,,119.7,32.258064,256.3,Dec-15,"$GPRMC,210150,A,4002.899660,N,08044.401560,W,64.6,256.3,150117,0.0,E,D*3E::$GPGSA,A,3,01,03,10,14,16,22,25,26,29,31,32,,1.1,0.8,0.7*37::$GPGGA,210150,4002.899660,N,08044.401560,W,2,11,0.8,217.0,M,-32.0,M,,*74::$GPGSV,3,3,15,29,10,085,22,31,70,014,22,32,39,105,19,23,08,299,*76::$GPVTG,256.3,T,256.3,M,64.6,N,119.7,K,D*1C::$GLGSV,1,1,15,66,78,309,30,76,75,319,21,75,30,035,15*5F",15420008,2017-01-15 16:01:50:739
9.742,-1.5856,1.0792,9.5904,-1.8638,0.8489,0.1516,0.2782,0.2303,0.0362,-0.0301,0.0682,0,4.97,16.89,20.14,47.31,10.96,-84.94,3.1,999.5,82.8,19.4,72.142,40.047703,-80.74377,632.26,733.8271064,,111.6,35.48387,256.7,Dec-15,"$GPRMC,210200,A,4002.862158,N,08044.626065,W,60.3,256.7,150117,0.0,E,D*32::$GPGSA,A,3,01,03,10,14,16,22,25,26,29,31,32,,1.2,1.0,0.7*3D::$GPGGA,210200,4002.862158,N,08044.626065,W,2,11,1.0,228.0,M,-32.0,M,,*78::$GPGSV,3,3,15,31,70,014,22,32,39,105,20,10,04,161,,23,08,299,*78::$GPVTG,256.7,T,256.7,M,60.3,N,111.6,K,D*14::$GLGSV,1,1,15,66,78,309,30,76,75,319,21,75,30,035,17*5D",15430008,2017-01-15 16:02:00:739
10.0096,-2.0716,0.4824,9.5241,-2.2001,0.7884,0.4855,0.1285,-0.306,0.0368,-0.0386,0.0575,0,13.28,16.82,28.33,53.31,12.96,-85.27,3.1,997.96,82.9,19.5,71.379,40.04702,-80.747375,658.06,733.8271064,,116.1,35.48387,256.1,Dec-15,"$GPRMC,210210,A,4002.821183,N,08044.842676,W,62.7,256.1,150117,0.0,E,D*3A::$GPGSA,A,3,01,03,10,14,16,22,25,26,29,31,32,,1.2,1.0,0.7*3D::$GPGGA,210210,4002.821183,N,08044.842676,W,2,11,1.0,236.0,M,-32.0,M,,*7F::$GPGSV,3,3,15,31,70,014,22,32,39,105,18,10,04,161,,23,08,299,*73::$GPVTG,256.1,T,256.1,M,62.7,N,116.1,K,D*12::$GLGSV,1,1,15,66,78,309,31,76,75,324,21,75,30,035,17*52",15440007,2017-01-15 16:02:10:738
9.8779,-1.6855,0.7769,9.6664,-1.5198,0.6487,0.2115,-0.1657,0.1282,0.0408,-0.024,0.0688,0,12.84,16.24,29,56.22,8.91,-86.17,3.1,996.16,82.9,19.5,71.869,40.04632,-80.75113,696.77,821.649097,,120.6,35.48387,256.1,Dec-15,"$GPRMC,210221,A,4002.774619,N,08045.090795,W,64.6,256.0,150117,0.0,E,D*3F::$GPGSA,A,3,01,03,10,14,16,22,25,26,29,31,32,,1.2,1.0,0.7*3D::$GPGGA,210221,4002.774619,N,08045.090795,W,2,11,1.0,249.0,M,-32.0,M,,*74::$GPGSV,3,3,15,32,39,105,21,10,04,161,,16,19,191,,23,08,299,*7F::$GPVTG,256.0,T,256.0,M,64.6,N,119.7,K,D*1C::$GLGSV,1,1,15,66,78,309,29,76,75,324,22,75,30,035,17*58",15450008,2017-01-15 16:02:20:739
9.4828,-1.494,1.2486,9.5595,-1.7393,1.3273,-0.0766,0.2453,-0.0787,0.0124,-0.0188,0.0596,0,12.61,15.02,28.92,56.61,10.22,-82.1,3.1,994.77,82.9,19.4,71.332,40.04559,-80.75529,725.81,821.649097,,120.6,35.48387,259.6,Dec-15,"$GPRMC,210231,A,4002.735315,N,08045.317391,W,65.1,259.6,150117,0.0,E,D*31::$GPGSA,A,3,01,03,10,14,16,22,25,26,29,31,32,,1.4,1.1,0.9*34::$GPGGA,210231,4002.735315,N,08045.317391,W,2,11,1.1,257.0,M,-32.0,M,,*7B::$GPGSV,3,2,15,25,26,045,24,26,47,177,25,29,10,085,26,31,70,014,18*73::$GPVTG,259.6,T,259.6,M,65.1,N,120.6,K,D*11::$GLGSV,1,1,15,66,78,309,28,76,75,324,23,75,30,035,18*57",15460007,2017-01-15 16:02:30:738
9.7306,-1.7544,1.7041,9.5851,-1.5257,1.4032,0.1456,-0.2287,0.3009,8.00E-04,-0.0246,0.067,0,12.15,11.87,28.22,61.1,8.95,-81.67,3.1,993.18,82.9,19.3,71.427,40.045437,-80.75889,761.29,901.5529377,,126,32.258064,269.7,Dec-15,"$GPRMC,210240,A,4002.726206,N,08045.533485,W,68.0,269.7,150117,0.0,E,D*3A::$GPGSA,A,3,01,03,10,14,16,22,25,26,29,31,32,,1.2,0.9,0.8*3A::$GPGGA,210240,4002.726206,N,08045.533485,W,2,11,0.9,268.0,M,-32.0,M,,*7B::$GPGSV,3,3,15,29,10,085,24,31,70,014,23,32,39,105,24,10,04,161,*77::$GPVTG,269.7,T,269.7,M,68.0,N,126.0,K,D*1D::$GLGSV,1,1,15,66,80,305,30,76,75,324,20,75,30,035,18*56",15470007,2017-01-15 16:02:40:738
9.3625,-1.5203,1.2582,9.6278,-1.5668,1.01,-0.2653,0.0465,0.2481,0.0249,-0.0487,0.0557,0,11.07,9.35,26.99,66.67,9.19,-83.97,3.1,992.07,83,19.4,71.878,40.04589,-80.76335,809.68,901.5529377,,123.3,35.48387,281.5,Dec-15,"$GPRMC,210251,A,4002.753551,N,08045.801233,W,66.6,281.5,150117,0.0,E,D*36::$GPGSA,A,3,01,03,10,14,16,22,25,26,29,31,32,,1.2,0.9,0.8*3A::$GPGGA,210251,4002.753551,N,08045.801233,W,2,11,0.9,283.0,M,-32.0,M,,*7E::$GPGSV,3,3,15,31,70,016,28,32,38,106,23,01,06,258,,10,04,161,*72::$GPVTG,281.5,T,281.5,M,66.6,N,123.3,K,D*13::$GLGSV,1,1,15,66,80,305,30,76,75,324,25,75,30,035,20*58",15480008,2017-01-15 16:02:50:739
9.8647,-1.7304,0.6345,9.6918,-1.451,0.3667,0.1729,-0.2794,0.2677,0.0445,-0.0325,0.0761,0,11.23,10.1,27.61,67.05,8.51,-87.83,3.1,990.65,83,19.4,71.325,40.046505,-80.76684,735.48,978.7424857,,121.5,32.258064,281.1,Dec-15,"$GPRMC,210300,A,4002.790118,N,08046.010516,W,65.6,281.1,150117,0.0,E,D*39::$GPGSA,A,3,01,03,10,14,16,22,25,26,29,31,32,,1.2,0.9,0.8*3A::$GPGGA,210300,4002.790118,N,08046.010516,W,2,11,0.9,260.0,M,-32.0,M,,*7B::$GPGSV,3,3,15,31,70,016,23,32,38,106,21,01,06,258,,10,04,161,*7B::$GPVTG,281.1,T,281.1,M,65.6,N,121.5,K,D*14::$GLGSV,1,1,15,66,80,305,31,76,75,324,24,75,30,035,12*59",15490007,2017-01-15 16:03:00:738
10.2286,-1.8441,0.6404,9.5843,-1.8992,0.8395,0.6443,0.0551,-0.199,0.0356,-0.0399,0.078,0,11.63,10.95,28.04,63.16,11.15,-84.96,3.1,988.97,82.9,19.5,72.311,40.04695,-80.77062,877.42,978.7424857,,115.2,32.258064,278.2,Dec-15,"$GPRMC,210310,A,4002.817261,N,08046.237528,W,62.2,278.2,150117,0.0,E,D*39::$GPGSA,A,3,01,03,10,14,16,22,25,26,29,31,32,,1.4,1.1,0.9*34::$GPGGA,210310,4002.817261,N,08046.237528,W,2,11,1.1,304.0,M,-32.0,M,,*77::$GPGSV,3,3,15,31,69,016,21,32,38,106,27,01,05,258,,10,03,161,*73::$GPVTG,278.2,T,278.2,M,62.2,N,115.2,K,D*17::$GLGSV,1,1,15,66,80,303,28,76,75,326,22,75,29,035,25*5F",15500007,2017-01-15 16:03:10:738
9.5553,-1.7891,1.1833,9.5636,-1.8122,1.1934,-0.0083,0.0231,-0.0101,0.0304,-0.0121,0.0511,0,11.3,10.58,26.36,61.22,10.65,-82.89,3.1,987.36,83,19.4,70.958,40.04738,-80.774765,945.16,1066.808327,,117.9,29.032257,278.4,Dec-15,"$GPRMC,210320,A,4002.839904,N,08046.463194,W,63.2,278.3,150117,0.0,E,D*3A::$GPGSA,A,3,01,03,10,14,16,22,25,26,29,31,32,,1.2,0.9,0.8*3A::$GPGGA,210320,4002.839904,N,08046.463194,W,2,11,0.9,323.0,M,-32.0,M,,*78::$GPGSV,3,3,15,31,69,016,23,32,38,106,24,01,05,258,,10,03,161,*72::$GPVTG,278.3,T,278.3,M,63.2,N,117.0,K,D*16::$GLGSV,1,1,15,66,80,303,30,76,75,326,24,75,29,035,22*57",15510008,2017-01-15 16:03:20:739
9.812,-1.8346,1.057,9.61,-1.596,1.1271,0.202,-0.2386,-0.0701,0.0359,-0.0472,0.0624,0,11.15,10.73,26.25,61.86,9.37,-83.31,3.1,985.81,82.9,19.3,70.391,40.047794,-80.77819,993.55,1066.808327,,118.8,29.032257,278.4,Dec-15,"$GPRMC,210330,A,4002.867768,N,08046.691767,W,64.1,278.4,150117,0.0,E,D*32::$GPGSA,A,3,01,03,10,14,16,22,25,26,29,31,32,,1.2,0.9,0.8*3A::$GPGGA,210330,4002.867768,N,08046.691767,W,2,11,0.9,340.0,M,-32.0,M,,*76::$GPGSV,3,3,15,31,69,016,22,32,38,106,25,01,05,258,,10,03,161,*72::$GPVTG,278.4,T,278.4,M,64.1,N,118.8,K,D*15::$GLGSV,1,1,15,66,80,303,31,76,75,326,23,75,29,035,24*57",15520008,2017-01-15 16:03:30:739
10.0108,-1.5173,0.9367,9.605,-1.5762,1.1957,0.4057,0.0589,-0.259,0.0295,-0.0258,0.0682,0,11.02,10.51,26.37,61.76,9.25,-82.9,3.1,984.3,82.9,19.3,71.756,40.048264,-80.78239,1025.81,1157.611839,,117,29.032257,278.5,Dec-15,"$GPRMC,210341,A,4002.895923,N,08046.942997,W,63.2,278.5,150117,0.0,E,D*3D::$GPGSA,A,3,01,03,10,14,16,22,25,26,29,31,32,,1.2,0.9,0.8*3A::$GPGGA,210341,4002.895923,N,08046.942997,W,2,11,0.9,350.0,M,-32.0,M,,*7D::$GPGSV,3,3,15,31,69,016,22,32,38,106,25,01,05,258,,10,03,161,*72::$GPVTG,278.5,T,278.5,M,63.2,N,117.0,K,D*16::$GLGSV,1,1,15,66,80,303,30,76,75,326,22,75,29,035,23*50",15530009,2017-01-15 16:03:40:740
9.59,-0.8517,1.1223,9.6569,-1.248,1.1652,-0.0669,0.3963,-0.0429,0.0359,-0.0322,0.0636,0,11.21,9.59,26.76,65.28,7.36,-83.11,3.1,983.26,82.9,19.5,70.89,40.04868,-80.78578,1045.16,1157.611839,,120.6,32.258064,278.5,Dec-15,"$GPRMC,210350,A,4002.920881,N,08047.147128,W,65.1,278.5,150117,0.0,E,D*3E::$GPGSA,A,3,01,03,10,14,16,22,25,26,29,31,32,,1.1,0.8,0.7*37::$GPGGA,210350,4002.920881,N,08047.147128,W,2,11,0.8,356.0,M,-32.0,M,,*7C::$GPGSV,3,3,15,29,10,085,27,31,69,016,21,32,38,106,26,10,03,161,*7B::$GPVTG,278.5,T,278.5,M,65.1,N,120.6,K,D*11::$GLGSV,1,1,15,66,80,303,29,76,75,326,18,75,29,035,16*57",15540008,2017-01-15 16:03:50:739
9.8055,-1.2234,0.89,9.6263,-1.5698,1.0203,0.1792,0.3464,-0.1303,0.035,-0.0301,0.0624,0,10.83,9.45,26.31,65.85,9.21,-83.95,3.1,982.99,82.9,19.4,71.02,40.04913,-80.78967,1048.39,1191.384325,,122.4,32.258064,278.8,13 / 15,"$GPRMC,210400,A,4002.947672,N,08047.380511,W,66.1,278.8,150117,0.0,E,D*36::$GPGSA,A,3,01,03,10,14,16,22,23,25,26,29,31,32,1.1,0.8,0.7*36::$GPGGA,210400,4002.947672,N,08047.380511,W,2,12,0.8,357.0,M,-32.0,M,,*78::$GPGSV,3,3,15,29,10,085,26,31,69,016,21,32,38,106,26,22,46,281,*77::$GPVTG,278.8,T,278.8,M,66.1,N,122.4,K,D*12::$GLGSV,1,1,15,66,80,303,30,76,75,326,13,75,29,035,19*5B",15550008,2017-01-15 16:04:00:739
8.8897,-0.9403,0.9852,9.6697,-1.2833,1.0104,-0.78,-0.1326,0.1172,0.0344,-0.024,0.0639,0,12.09,9.06,26.33,66.23,7.52,-84.02,3.1,982.88,82.9,19.4,70.106,40.049633,-80.79402,1064.52,1191.384325,,120.6,29.032257,278.5,13 / 15,"$GPRMC,210411,A,4002.977808,N,08047.641300,W,65.1,278.5,150117,0.0,E,D*36::$GPGSA,A,3,01,03,10,14,16,22,23,25,26,29,31,32,1.1,0.8,0.8*39::$GPGGA,210410,4002.975183,N,08047.617997,W,2,12,0.8,360.0,M,-32.0,M,,*7C::$GPGSV,3,3,15,29,10,085,27,31,69,016,21,32,38,106,27,22,46,281,*77::$GPVTG,278.5,T,278.5,M,65.1,N,120.6,K,D*11::$GLGSV,1,1,15,66,80,303,30,76,75,326,13,75,29,035,23*52",15560007,2017-01-15 16:04:10:738
8.7586,-1.5874,0.9984,9.6327,-1.5721,0.9542,-0.8741,-0.0153,0.0442,0.0292,-0.0292,0.0483,0,12.4,9.23,26.67,66.39,9.24,-84.35,3.1,982.61,82.7,19.5,70.994,40.05003,-80.797554,1070.97,1191.384325,,123.3,29.032257,278.4,13 / 15,"$GPRMC,210420,A,4003.001655,N,08047.853074,W,66.6,278.4,150117,0.0,E,D*33::$GPGSA,A,3,01,03,10,14,16,22,23,25,26,29,31,32,1.1,0.8,0.7*36::$GPGGA,210420,4003.001655,N,08047.853074,W,2,12,0.8,364.0,M,-32.0,M,,*76::$GPGSV,3,3,15,26,48,177,23,29,10,085,27,32,38,106,28,31,69,016,*7A::$GPVTG,278.4,T,278.4,M,66.6,N,123.3,K,D*13::$GLGSV,1,1,15,66,80,303,28,76,75,326,14,75,29,035,22*5D",15570008,2017-01-15 16:04:20:739
9.484,-1.4138,1.2186,9.633,-1.4758,1.0948,-0.1489,0.062,0.1239,0.0277,-0.0527,0.0792,0,11.96,9.18,26.23,65.55,8.63,-83.51,3.1,982.48,83,19.4,71.487,40.050503,-80.80158,1074.19,1202.681636,,126.9,32.258064,278.7,13 / 15,"$GPRMC,210430,A,4003.030247,N,08048.094930,W,68.5,278.7,150117,0.0,E,D*3C::$GPGSA,A,3,01,03,10,14,16,22,23,25,26,29,31,32,1.1,0.8,0.7*36::$GPGGA,210430,4003.030247,N,08048.094930,W,2,12,0.8,365.0,M,-32.0,M,,*76::$GPGSV,3,1,15,01,05,257,20,03,38,300,30,10,03,161,25,14,63,082,26*7C::$GPVTG,278.7,T,278.7,M,68.5,N,126.9,K,D*11::$GLGSV,1,1,15,66,80,303,29,76,75,326,12,75,29,035,22*5A",15580007,2017-01-15 16:04:30:738
9.1776,-1.5239,0.759,9.6302,-1.4359,1.1693,-0.4527,-0.0881,-0.4103,0.0347,0.0145,0.07,0,12.18,9.15,27.16,66.31,8.42,-83.08,3.1,982.19,82.9,19.3,72.003,40.051037,-80.80618,1077.42,1202.681636,,128.7,32.258064,278.8,13 / 15,"$GPRMC,210440,A,4003.059474,N,08048.346593,W,69.0,278.6,150117,0.0,E,D*3E::$GPGSA,A,3,01,03,10,14,16,22,23,25,26,29,31,32,1.1,0.8,0.7*36::$GPGGA,210440,4003.059474,N,08048.346593,W,2,12,0.8,365.0,M,-32.0,M,,*71::$GPGSV,3,3,15,26,48,177,23,29,10,084,26,32,37,106,28,31,69,018,*7B::$GPVTG,278.6,T,278.6,M,69.0,N,127.8,K,D*15::$GLGSV,1,1,15,66,80,303,28,76,75,326,12,75,29,035,14*5E",15590010,2017-01-15 16:04:40:741
9.1339,-0.4178,1.0654,9.6617,-1.03,1.3268,-0.5279,0.6122,-0.2614,0.0167,-0.0289,0.0477,0,12.84,7.13,27.63,71.42,6.08,-82.18,3.1,982.28,83.1,19.3,69.549,40.05152,-80.80977,1080.65,1217.673296,,123.3,35.48387,282,13 / 15,"$GPRMC,210450,A,4003.091302,N,08048.585982,W,66.6,282.0,150117,0.0,E,D*32::$GPGSA,A,3,01,03,10,14,16,22,23,25,26,29,31,32,1.0,0.8,0.7*37::$GPGGA,210450,4003.091302,N,08048.585982,W,2,12,0.8,367.0,M,-32.0,M,,*75::$GPGSV,3,3,15,26,48,177,20,29,10,084,20,31,69,018,22,32,37,106,31*76::$GPVTG,282.0,T,282.0,M,66.6,N,123.3,K,D*13::$GLGSV,1,1,15,66,80,303,30,76,75,326,23,75,29,035,15*54",15600007,2017-01-15 16:04:50:738
9.7115,-1.1773,1.1277,9.6598,-1.1485,1.2411,0.0517,-0.0288,-0.1135,0.0063,-0.0301,0.0532,0,11.98,3.5,26.36,76.65,6.74,-82.68,3.1,982.51,82.9,19.4,71.28,40.052498,-80.8135,1077.42,1217.673296,,122.4,32.258064,293.9,13 / 15,"$GPRMC,210500,A,4003.149793,N,08048.809636,W,66.1,293.9,150117,0.0,E,D*39::$GPGSA,A,3,01,03,10,14,16,22,23,25,26,29,31,32,1.0,0.8,0.7*37::$GPGGA,210500,4003.149793,N,08048.809636,W,2,12,0.8,366.0,M,-32.0,M,,*71::$GPGSV,3,3,15,26,48,177,20,29,10,084,16,31,69,018,27,32,37,106,24*72::$GPVTG,293.9,T,293.9,M,66.1,N,122.4,K,D*12::$GLGSV,1,1,15,66,80,303,30,76,75,326,28,75,29,035,16*5C",15610008,2017-01-15 16:05:00:739
9.7013,-1.2025,1.0744,9.6236,-1.4137,1.248,0.0777,0.2112,-0.1736,0.0283,-0.0341,0.0633,0,12.95,1.62,23.97,79.05,8.29,-82.61,3.1,983.95,82.9,19.4,70.843,40.05401,-80.816956,1054.84,1181.6998,,123.3,32.258064,305.1,13 / 15,"$GPRMC,210510,A,4003.240477,N,08049.017002,W,66.6,305.1,150117,0.0,E,D*3D::$GPGSA,A,3,01,03,10,14,16,22,23,25,26,29,31,32,1.1,0.8,0.7*36::$GPGGA,210510,4003.240477,N,08049.017002,W,2,12,0.8,359.0,M,-32.0,M,,*78::$GPGSV,3,3,15,26,48,177,27,29,10,084,21,31,69,018,23,32,37,106,23*72::$GPVTG,305.1,T,305.1,M,66.6,N,123.3,K,D*13::$GLGSV,1,1,15,66,80,298,28,76,74,330,31,75,28,036,22*5D",15620008,2017-01-15 16:05:10:739
9.2183,-0.9589,0.8733,9.7024,-1.0451,0.9707,-0.4841,0.0862,-0.0974,0.0374,-0.0518,0.0569,0,11.41,1.53,21.9,80.75,6.12,-84.29,3.1,984.93,82.9,19.5,70.645,40.05596,-80.82022,1029.03,1181.6998,,125.1,29.032257,307.4,13 / 15,"$GPRMC,210520,A,4003.357735,N,08049.213490,W,67.5,307.4,150117,0.0,E,D*30::$GPGSA,A,3,01,03,10,14,16,22,23,25,26,29,31,32,1.1,0.8,0.7*36::$GPGGA,210520,4003.357735,N,08049.213490,W,2,12,0.8,351.0,M,-32.0,M,,*78::$GPGSV,3,3,15,26,48,177,28,29,10,084,21,31,69,018,24,32,37,106,26*7F::$GPVTG,307.4,T,307.4,M,67.5,N,125.1,K,D*15::$GLGSV,1,1,15,66,80,298,28,76,74,330,27,75,28,036,18*53",15630007,2017-01-15 16:05:20:738
9.6211,-1.5173,0.2322,9.6721,-1.5595,0.4356,-0.051,0.0421,-0.2034,0.0484,-0.0359,0.0639,0,12.19,4.57,23.03,72.66,9.15,-87.42,3.1,984.66,82.9,19.3,71.786,40.05782,-80.82349,1016.13,1143.99427,,125.1,32.258064,302.2,13 / 15,"$GPRMC,210530,A,4003.469187,N,08049.409297,W,67.5,302.2,150117,0.0,E,D*3B::$GPGSA,A,3,01,03,10,14,16,22,23,25,26,29,31,32,1.1,0.8,0.7*36::$GPGGA,210530,4003.469187,N,08049.409297,W,2,12,0.8,347.0,M,-32.0,M,,*77::$GPGSV,3,3,15,26,48,177,25,29,10,084,20,31,69,018,25,32,37,106,18*7F::$GPVTG,302.2,T,302.2,M,67.5,N,125.1,K,D*15::$GLGSV,1,1,15,66,80,298,30,76,74,330,29,75,28,036,30*5E",15640007,2017-01-15 16:05:30:738
9.8934,-1.5868,0.3843,9.686,-1.4314,0.551,-0.1219,0.1315,0.0266,0.0515,-0.0157,0.0609,0,12.77,7.16,25.04,68.78,8.39,-86.74,3.1,983.69,82.8,19.4,71.013,40.059303,-80.827576,1032.26,1143.99427,,126,29.032257,289.9,13 / 15,"$GPRMC,210541,A,4003.558283,N,08049.654602,W,68.0,289.9,150117,0.0,E,D*38::$GPGSA,A,3,01,03,10,14,16,22,23,25,26,29,31,32,1.0,0.8,0.7*37::$GPGGA,210541,4003.558283,N,08049.654602,W,2,12,0.8,352.0,M,-32.0,M,,*73::$GPGSV,3,3,15,26,48,177,22,29,10,084,23,31,69,018,29,32,37,106,28*74::$GPVTG,289.9,T,289.9,M,68.0,N,126.0,K,D*1D::$GLGSV,1,1,15,66,80,298,28,76,74,330,25,75,28,036,18*51",15650007,2017-01-15 16:05:40:738
9.6247,-1.424,1.0612,9.666,-1.1476,1.1925,-0.0413,-0.2763,-0.1313,0.0335,-0.0542,0.0541,0,11.16,6.47,25.81,72.72,6.7,-82.93,3.1,983.72,82.9,19.3,70.604,40.06012,-80.83115,1041.94,1171.983235,,126,35.48387,286.5,13 / 15,"$GPRMC,210550,A,4003.607169,N,08049.868790,W,68.0,286.5,150117,0.0,E,D*3E::$GPGSA,A,3,01,03,10,14,16,22,23,25,26,29,31,32,1.0,0.8,0.7*37::$GPGGA,210550,4003.607169,N,08049.868790,W,2,12,0.8,355.0,M,-32.0,M,,*71::$GPGSV,3,3,15,26,48,177,21,29,10,084,14,31,69,018,25,32,37,106,26*71::$GPVTG,286.5,T,286.5,M,68.0,N,126.0,K,D*1D::$GLGSV,1,1,15,66,80,298,28,76,74,330,16,75,28,036,18*51",15660008,2017-01-15 16:05:50:739
9.59,-1.3707,1.0331,9.7282,-0.9567,0.785,-0.1383,-0.4139,0.2481,0.0295,-0.0674,0.0587,0,9.19,6.17,27.12,74.92,5.6,-85.39,3.1,984.57,82.9,19.4,70.322,40.060966,-80.83511,1035.48,1171.983235,,126.9,32.258064,287,13 / 15,"$GPRMC,210600,A,4003.658139,N,08050.106638,W,68.5,287.0,150117,0.0,E,D*3C::$GPGSA,A,3,01,03,10,14,16,22,23,25,26,29,31,32,1.0,0.8,0.7*37::$GPGGA,210600,4003.658139,N,08050.106638,W,2,12,0.8,353.0,M,-32.0,M,,*74::$GPGSV,3,3,15,26,48,177,24,29,10,084,21,31,69,018,18,32,37,106,20*7A::$GPVTG,287.0,T,287.0,M,68.5,N,126.9,K,D*11::$GLGSV,1,1,15,66,80,298,28,76,74,330,22,75,28,036,20*5D",15670007,2017-01-15 16:06:00:738
9.9192,-0.8033,2.6187,9.4535,-1.0356,2.3935,0.4657,0.2324,0.2252,-0.0319,-0.0255,0.0615,0,10.81,0.92,24.46,82.4,6.06,-75.79,3.1,986.07,83,19.4,71.635,40.062454,-80.839134,1000,1171.983235,,125.1,32.258064,309.7,13 / 15,"$GPRMC,210611,A,4003.747416,N,08050.348210,W,67.5,309.7,150117,0.0,E,D*32::$GPGSA,A,3,01,03,10,14,16,22,23,25,26,29,31,32,1.2,0.9,0.8*3B::$GPGGA,210611,4003.747416,N,08050.348210,W,2,12,0.9,342.0,M,-32.0,M,,*74::$GPGSV,3,3,15,29,11,084,16,31,68,019,18,32,37,108,26,10,02,161,*7D::$GPVTG,309.7,T,309.7,M,67.5,N,125.1,K,D*15::$GLGSV,1,1,15,66,80,298,27,76,74,330,31,75,28,036,24*54",15680007,2017-01-15 16:06:10:738
9.9814,-1.9603,1.1486,9.5827,-1.5532,1.3889,0.3987,-0.407,-0.2403,0.0319,-0.0167,0.0722,0,8.55,-0.8,13.21,86.45,9.11,-81.75,3.1,985.46,82.8,19.4,71.755,40.064796,-80.84108,983.87,1111.461711,,125.1,32.258064,337.6,13 / 15,"$GPRMC,210620,A,4003.887683,N,08050.464987,W,67.5,337.6,150117,0.0,E,D*3D::$GPGSA,A,3,01,03,10,14,16,22,23,25,26,29,31,32,1.1,0.8,0.7*36::$GPGGA,210620,4003.887683,N,08050.464987,W,2,12,0.8,337.0,M,-32.0,M,,*74::$GPGSV,3,3,15,29,11,084,13,31,68,019,26,32,37,108,21,01,05,257,*73::$GPVTG,337.6,T,337.6,M,67.5,N,125.1,K,D*15::$GLGSV,1,1,15,66,80,298,25,76,73,333,22,75,28,036,23*57",15690007,2017-01-15 16:06:20:738
9.4373,-0.7781,-0.1281,9.7719,-0.7334,0.3769,-0.0545,0.0259,-0.2758,0.0716,-0.0298,0.0569,0,14.26,-5.73,20.26,104.09,4.29,-87.79,3.1,983.92,82.8,19.4,71.003,40.067684,-80.84224,1022.58,1111.461711,,109.8,29.032257,341.6,13 / 15,"$GPRMC,210631,A,4004.076518,N,08050.541584,W,58.3,341.1,150117,0.0,E,D*38::$GPGSA,A,3,01,03,10,14,16,22,23,25,26,29,31,32,1.1,0.8,0.7*36::$GPGGA,210631,4004.076518,N,08050.541584,W,2,12,0.8,352.0,M,-32.0,M,,*7E::$GPGSV,3,3,15,26,49,175,28,29,11,084,13,31,68,019,20,32,37,108,18*7B::$GPVTG,341.1,T,341.1,M,58.3,N,108.0,K,D*11::$GLGSV,1,1,15,66,80,298,24,76,73,333,28,75,28,036,26*59",15700007,2017-01-15 16:06:30:738
10.1562,-2.4648,-1.1133,9.5056,-2.2792,-0.7863,0.6506,-0.1856,-0.327,0.1318,-0.06,0.0758,0,11.12,8.45,22.28,66.54,13.44,-94.73,3.1,982.46,82.8,19.4,70.405,40.06952,-80.84415,1061.29,1186.520035,,94.5,29.032257,298.8,13 / 15,"$GPRMC,210640,A,4004.171229,N,08050.648453,W,51.0,298.8,150117,0.0,E,D*3A::$GPGSA,A,3,01,03,10,14,16,22,23,25,26,29,31,32,1.1,0.8,0.7*36::$GPGGA,210640,4004.171229,N,08050.648453,W,2,12,0.8,361.0,M,-32.0,M,,*7A::$GPGSV,3,3,15,29,11,084,27,31,68,019,29,32,37,108,30,01,05,257,*7B::$GPVTG,293.4,T,293.4,M,51.5,N,95.4,K,D*2F::$GLGSV,1,1,15,66,80,298,31,76,73,333,23,75,28,036,24*54",15710007,2017-01-15 16:06:40:738
9.3332,-1.6604,2.1638,9.5313,-1.4927,1.7598,-0.1981,-0.1676,0.404,-0.0142,-0.0591,0.0734,0,14.68,14.55,28.21,54.28,8.76,-79.54,3.1,981.03,82.9,19.4,71.351,40.06951,-80.84776,1109.68,1186.520035,,108.9,32.258064,259.2,13 / 15,"$GPRMC,210651,A,4004.170748,N,08050.865571,W,58.8,259.2,150117,0.0,E,D*3F::$GPGSA,A,3,01,03,10,14,16,22,23,25,26,29,31,32,1.0,0.8,0.7*37::$GPGGA,210651,4004.170748,N,08050.865571,W,2,12,0.8,376.0,M,-32.0,M,,*7F::$GPGSV,3,3,15,26,49,175,20,29,11,084,26,31,68,019,28,32,37,108,22*74::$GPVTG,259.2,T,259.2,M,58.8,N,108.9,K,D*13::$GLGSV,1,1,15,66,80,298,30,76,73,333,24,75,28,036,23*55",15720007,2017-01-15 16:06:50:738
9.4361,-0.7757,0.5698,9.7392,-0.9364,0.6644,-0.3031,0.1607,-0.0946,0.0399,-0.0319,0.0636,0,13.17,8.74,28.27,68.99,5.49,-86.06,3.1,980.97,82.9,19.4,71.603,40.06956,-80.85111,1119.35,1257.2266,,122.4,29.032257,276.2,13 / 15,"$GPRMC,210700,A,4004.173518,N,08051.066912,W,66.1,276.2,150117,0.0,E,D*34::$GPGSA,A,3,01,03,10,14,16,22,23,25,26,29,31,32,1.0,0.8,0.7*37::$GPGGA,210700,4004.173518,N,08051.066912,W,2,12,0.8,379.0,M,-32.0,M,,*72::$GPGSV,3,3,15,26,49,175,23,29,11,084,28,31,68,019,26,32,37,108,27*72::$GPVTG,276.2,T,276.2,M,66.1,N,122.4,K,D*12::$GLGSV,1,1,15,66,80,298,28,76,73,333,21,75,28,036,18*51",15730008,2017-01-15 16:07:00:739
10.7613,-1.0223,1.9046,9.6171,-0.976,1.6521,1.1442,-0.0464,0.2525,0.009,-0.0258,0.0935,0,13.15,7.35,27.85,71.08,5.69,-80.26,3.1,982.48,82.7,19.4,71.138,40.06992,-80.85501,1087.1,1257.2266,,120.6,29.032257,279.1,13 / 15,"$GPRMC,210710,A,4004.195254,N,08051.300613,W,65.1,279.1,150117,0.0,E,D*30::$GPGSA,A,3,01,03,10,14,16,22,23,25,26,29,31,32,1.0,0.8,0.7*37::$GPGGA,210710,4004.195254,N,08051.300613,W,2,12,0.8,369.0,M,-32.0,M,,*78::$GPGSV,3,3,15,26,49,175,17,29,11,084,19,31,68,019,26,32,37,108,30*71::$GPVTG,279.1,T,279.1,M,65.1,N,120.6,K,D*11::$GLGSV,1,1,15,66,80,298,28,76,73,333,23,75,28,036,17*5C",15740008,2017-01-15 16:07:10:739
9.5559,-1.0666,0.8027,9.7,-0.7123,1.2544,-0.1441,-0.3543,-0.4517,0.0301,-0.0353,0.0532,0,13.17,5.59,23.31,71.35,4.16,-82.59,3.1,982.15,82.7,19.4,71.269,40.07077,-80.85883,1096.77,1207.055221,,118.8,32.258064,290.7,13 / 15,"$GPRMC,210720,A,4004.246370,N,08051.529872,W,64.1,290.7,150117,0.0,E,D*3D::$GPGSA,A,3,01,03,10,14,16,22,23,25,26,29,31,32,1.0,0.8,0.7*37::$GPGGA,210720,4004.246370,N,08051.529872,W,2,12,0.8,372.0,M,-32.0,M,,*7F::$GPGSV,3,3,15,29,11,084,26,31,68,019,26,32,37,108,24,10,02,161,*71::$GPVTG,290.7,T,290.7,M,64.1,N,118.8,K,D*15::$GLGSV,1,1,15,66,81,291,29,76,73,333,25,75,28,036,16*52",15750008,2017-01-15 16:07:20:739
9.5457,-1.3222,0.6387,9.6532,-1.4521,0.9367,-0.2064,0.2095,-0.1358,0.0503,-0.0435,0.0615,0,10.84,5.24,22.4,71.68,8.59,-84.44,3.1,982.87,82.7,19.4,72.294,40.07186,-80.8623,1083.87,1207.055221,,117.9,32.258064,291.2,13 / 15,"$GPRMC,210730,A,4004.311527,N,08051.737795,W,63.7,291.2,150117,0.0,E,D*35::$GPGSA,A,3,01,03,10,14,16,22,23,25,26,29,31,32,1.0,0.8,0.7*37::$GPGGA,210730,4004.311527,N,08051.737795,W,2,12,0.8,368.0,M,-32.0,M,,*79::$GPGSV,3,3,15,29,11,084,28,31,68,019,22,32,37,108,15,10,02,161,*79::$GPVTG,291.2,T,291.2,M,63.7,N,117.9,K,D*1A::$GLGSV,1,1,15,66,81,291,29,76,73,333,21,75,28,036,15*55",15760008,2017-01-15 16:07:30:739
10.0048,-1.7998,0.7703,9.6856,-1.4926,0.363,0.3192,-0.3073,0.4073,0.0478,-0.0344,0.0517,0,12.1,9.57,22.44,61.21,8.75,-87.85,3.1,982.94,83,19.4,72.335,40.07262,-80.86633,1083.87,1190.218189,,112.5,29.032257,275.9,13 / 15,"$GPRMC,210741,A,4004.357121,N,08051.980306,W,60.7,275.9,150117,0.0,E,D*3D::$GPGSA,A,3,01,03,10,14,16,22,23,25,26,29,31,32,1.0,0.8,0.7*37::$GPGGA,210741,4004.357121,N,08051.980306,W,2,12,0.8,368.0,M,-32.0,M,,*73::$GPGSV,3,3,15,26,49,175,28,29,11,084,27,31,68,019,22,32,37,108,27*72::$GPVTG,275.9,T,275.9,M,60.7,N,112.5,K,D*10::$GLGSV,1,1,15,66,81,291,29,76,73,333,22,75,28,036,21*51",15770008,2017-01-15 16:07:40:739
9.8366,-0.8045,0.2807,9.7498,-0.9706,0.4122,0.0868,0.1661,-0.1315,0.0548,-0.0396,0.0587,0,11.49,12.9,26.16,61.02,5.68,-87.58,3.1,983.53,82.8,19.4,70.583,40.07252,-80.869705,1077.42,1190.218189,,115.2,35.48387,262.7,13 / 15,"$GPRMC,210750,A,4004.351282,N,08052.182182,W,62.2,262.7,150117,0.0,E,D*39::$GPGSA,A,3,01,03,10,14,16,22,23,25,26,29,31,32,1.0,0.8,0.7*37::$GPGGA,210750,4004.351282,N,08052.182182,W,2,12,0.8,366.0,M,-32.0,M,,*76::$GPGSV,3,3,15,26,50,175,30,29,11,082,21,31,68,021,18,32,36,108,16*72::$GPVTG,262.7,T,262.7,M,62.2,N,115.2,K,D*17::$GLGSV,1,1,15,66,81,291,15,76,73,333,22,75,28,036,16*5A",15780007,2017-01-15 16:07:50:738
9.5074,-0.8386,0.8212,9.718,-0.9867,0.8708,-0.2106,0.1481,-0.0495,0.0359,-0.0209,0.0462,0,15.9,15.32,29.39,58.54,5.82,-84.88,3.1,985.12,82.9,19.4,71.076,40.071808,-80.873474,1022.58,1148.521445,,121.5,29.032257,255.2,13 / 15,"$GPRMC,210800,A,4004.308628,N,08052.408195,W,65.6,255.2,150117,0.0,E,D*38::$GPGSA,A,3,01,03,10,14,16,22,23,25,26,29,31,32,1.0,0.8,0.7*37::$GPGGA,210800,4004.308628,N,08052.408195,W,2,12,0.8,349.0,M,-32.0,M,,*78::$GPGSV,3,3,15,26,50,175,19,29,11,082,27,31,68,021,16,32,36,108,26*72::$GPVTG,255.2,T,255.2,M,65.6,N,121.5,K,D*14::$GLGSV,1,1,15,66,81,291,18,76,73,333,13,75,28,036,18*5B",15790008,2017-01-15 16:08:00:739
9.3954,-0.3974,1.2031,9.6389,-1.1637,1.381,-0.2435,0.7662,-0.1779,0.0289,-0.0222,0.0679,0,12.2,15.46,25.67,55.11,6.88,-81.83,3.1,985.18,82.9,19.4,71.902,40.07103,-80.87732,1016.13,1148.521445,,128.7,35.48387,254.7,13 / 15,"$GPRMC,210810,A,4004.261660,N,08052.639155,W,69.5,254.7,150117,0.0,E,D*3C::$GPGSA,A,3,01,03,10,14,16,22,23,25,26,29,31,32,1.0,0.8,0.7*37::$GPGGA,210810,4004.261660,N,08052.639155,W,2,12,0.8,347.0,M,-32.0,M,,*79::$GPGSV,3,3,15,26,50,175,19,29,11,082,27,31,68,021,12,32,36,108,23*73::$GPVTG,254.7,T,254.7,M,69.5,N,128.7,K,D*10::$GLGSV,1,1,15,66,81,291,25,76,73,333,21,75,28,036,14*58",15800007,2017-01-15 16:08:10:738
11.2851,-1.2737,0.7602,9.7234,-0.8955,0.9082,1.5617,-0.3782,-0.148,0.0515,-0.0402,0.0948,0,14.15,15.54,29.78,58.57,5.24,-84.66,3.1,985.65,82.9,19.4,71.554,40.07018,-80.881424,1009.68,1121.737064,,130.5,35.48387,255.2,13 / 15,"$GPRMC,210820,A,4004.210764,N,08052.885422,W,70.5,255.2,150117,0.0,E,D*3C::$GPGSA,A,3,01,03,10,14,16,22,23,25,26,29,31,32,1.1,0.8,0.8*39::$GPGGA,210820,4004.210764,N,08052.885422,W,2,12,0.8,345.0,M,-32.0,M,,*77::$GPGSV,3,3,15,29,11,082,27,31,68,021,15,32,36,108,24,10,02,161,*7C::$GPVTG,255.2,T,255.2,M,70.5,N,130.5,K,D*13::$GLGSV,1,1,15,66,81,291,25,76,73,336,25,75,27,036,14*56",15810008,2017-01-15 16:08:20:739
9.9677,-1.7448,1.339,9.5695,-1.7767,1.1993,0.3982,0.032,0.1397,0.0316,-0.0444,0.0584,0,13.42,17.64,27.07,50.64,10.44,-82.86,3.1,983.87,83,19.3,70.718,40.0694,-80.88538,1051.61,1121.737064,,126,29.032257,255.4,13 / 15,"$GPRMC,210830,A,4004.163920,N,08053.123206,W,68.0,255.4,150117,0.0,E,D*3A::$GPGSA,A,3,01,03,10,14,16,22,23,25,26,29,31,32,1.0,0.8,0.7*37::$GPGGA,210830,4004.163920,N,08053.123206,W,2,12,0.8,358.0,M,-32.0,M,,*77::$GPGSV,3,3,15,29,11,082,27,31,68,021,30,32,36,108,21,10,02,161,*7E::$GPVTG,255.4,T,255.4,M,68.0,N,126.0,K,D*1D::$GLGSV,1,1,15,66,81,291,29,76,73,336,25,75,27,036,22*5F",15820008,2017-01-15 16:08:30:739
9.7013,-1.3677,1.2037,9.6182,-1.5714,1.0916,0.0831,0.2037,0.1121,0.0286,-0.0487,0.0496,0,12.18,16.77,32.19,57.65,9.25,-83.5,3.1,981.84,82.9,19.3,70.819,40.06856,-80.88977,1100,1214.204324,,126.9,32.258064,255.2,13 / 15,"$GPRMC,210841,A,4004.113514,N,08053.385957,W,68.5,255.2,150117,0.0,E,D*32::$GPGSA,A,3,01,03,10,14,16,22,23,25,26,29,31,32,1.1,0.8,0.7*36::$GPGGA,210841,4004.113514,N,08053.385957,W,2,12,0.8,373.0,M,-32.0,M,,*75::$GPGSV,3,3,15,29,11,082,25,31,68,021,25,32,36,108,22,10,02,161,*7B::$GPVTG,255.2,T,255.2,M,68.5,N,126.9,K,D*11::$GLGSV,1,1,15,66,81,291,28,76,73,336,24,75,27,036,22*5F",15830008,2017-01-15 16:08:40:739
9.3105,-0.395,2.0333,9.6165,-0.6881,1.7942,-0.3061,0.2931,0.2391,-0.0026,-0.0463,0.0511,0,11.78,13.82,33.16,63.28,4.04,-79.44,3.1,981.55,82.9,19.3,70.774,40.067772,-80.89368,1112.9,1214.204324,,118.8,29.032257,259.2,13 / 15,"$GPRMC,210851,A,4004.066354,N,08053.620877,W,64.1,259.2,150117,0.0,E,D*3F::$GPGSA,A,3,01,03,10,14,16,22,23,25,26,29,31,32,1.0,0.8,0.7*37::$GPGGA,210851,4004.066354,N,08053.620877,W,2,12,0.8,377.0,M,-32.0,M,,*78::$GPGSV,3,3,15,26,50,175,25,29,11,082,23,31,68,021,21,32,36,108,27*7C::$GPVTG,259.2,T,259.2,M,64.1,N,118.8,K,D*15::$GLGSV,1,1,15,66,81,291,27,76,73,336,18,75,27,036,21*5C",15840007,2017-01-15 16:08:50:738
9.7947,-1.0953,2.0536,9.6066,-0.8484,1.7787,0.1881,-0.247,0.2749,0.0026,-0.006,0.0593,0,11.25,7.02,31.64,74.06,4.96,-79.51,3.1,983,83,19.3,70.453,40.067856,-80.8974,1093.55,1200.898841,,115.2,29.032257,280.6,13 / 15,"$GPRMC,210901,A,4004.071505,N,08053.843833,W,62.2,280.6,150117,0.0,E,D*31::$GPGSA,A,3,01,03,10,14,16,22,23,25,26,29,31,32,1.0,0.8,0.7*37::$GPGGA,210901,4004.071505,N,08053.843833,W,2,12,0.8,371.0,M,-32.0,M,,*75::$GPGSV,3,3,15,26,50,175,21,29,11,082,18,31,68,021,28,32,36,108,28*76::$GPVTG,280.6,T,280.6,M,62.2,N,115.2,K,D*17::$GLGSV,1,1,15,66,81,291,28,76,73,336,20,75,27,036,18*52",15850009,2017-01-15 16:09:00:740
10.1317,-0.9056,1.1702,9.6943,-1.2169,0.8429,0.4374,0.3113,0.3273,0.0359,-0.0341,0.0535,0,12.11,7.6,26.41,68.66,7.18,-85.02,3.1,983.62,82.9,19.3,73.717,40.068676,-80.90059,1070.97,1200.898841,,114.3,29.032257,290.5,13 / 15,"$GPRMC,210910,A,4004.120476,N,08054.035490,W,61.7,290.5,150117,0.0,E,D*3E::$GPGSA,A,3,01,03,10,14,16,22,23,25,26,29,31,32,1.0,0.8,0.7*37::$GPGGA,210910,4004.120476,N,08054.035490,W,2,12,0.8,364.0,M,-32.0,M,,*7A::$GPGSV,3,3,15,26,50,175,27,29,11,082,30,31,68,021,24,32,36,108,17*7A::$GPVTG,290.5,T,290.5,M,61.7,N,114.3,K,D*11::$GLGSV,1,1,15,66,81,291,30,76,73,336,26,75,27,036,20*56",15860008,2017-01-15 16:09:10:739
9.4026,-1.2204,0.6321,9.6876,-1.0853,1.0688,-0.285,-0.1352,-0.4367,0.0368,-0.0371,0.0538,0,13.28,4.84,27,75.16,6.36,-83.68,3.1,983.95,82.9,19.4,69.63,40.069656,-80.90399,1054.84,1200.898841,,109.8,29.032257,290.4,13 / 15,"$GPRMC,210920,A,4004.179221,N,08054.239555,W,59.3,290.4,150117,0.0,E,D*3D::$GPGSA,A,3,01,03,10,14,16,22,23,25,26,29,31,32,1.1,0.8,0.8*39::$GPGGA,210920,4004.179221,N,08054.239555,W,2,12,0.8,359.0,M,-32.0,M,,*79::$GPGSV,3,3,15,29,11,082,26,31,68,021,19,32,36,108,20,10,02,161,*75::$GPVTG,290.4,T,290.4,M,59.3,N,109.8,K,D*19::$GLGSV,1,1,15,66,82,282,28,76,73,336,14,75,27,036,24*5B",15870014,2017-01-15 16:09:20:745
10.2023,-1.1139,1.4611,9.6595,-1.222,1.1708,0.5428,0.1081,0.2903,0.0274,-0.0396,0.0609,0,15.18,6.34,27.54,72.43,7.16,-83.09,3.1,985.02,82.9,19.3,71.21,40.07065,-80.907486,1016.13,1170.932341,,118.8,29.032257,290.3,13 / 15,"$GPRMC,210930,A,4004.238736,N,08054.449337,W,64.1,290.3,150117,0.0,E,D*31::$GPGSA,A,3,01,03,10,14,16,22,23,25,26,29,31,32,1.1,0.8,0.8*39::$GPGGA,210930,4004.238736,N,08054.449337,W,2,12,0.8,347.0,M,-32.0,M,,*71::$GPGSV,3,3,15,29,11,082,27,31,67,022,22,32,36,109,15,10,01,161,*74::$GPVTG,290.3,T,290.3,M,64.1,N,118.8,K,D*15::$GLGSV,1,1,15,66,82,282,29,76,73,336,16,75,27,036,19*56",15880011,2017-01-15 16:09:30:742
9.5798,-0.9834,0.7985,9.6693,-1.2144,1.0958,-0.0895,0.231,-0.2973,0.0338,-5.00E-04,0.0566,0,12.14,7.86,28.98,70.32,7.15,-83.56,3.1,984.33,82.9,19.3,69.807,40.07175,-80.91135,1032.26,1170.932341,,111.6,29.032257,290.2,13 / 15,"$GPRMC,210941,A,4004.305058,N,08054.680789,W,60.3,290.2,150117,0.0,E,D*36::$GPGSA,A,3,01,03,10,14,16,22,23,25,26,29,31,32,1.1,0.8,0.8*39::$GPGGA,210941,4004.305058,N,08054.680789,W,2,12,0.8,352.0,M,-32.0,M,,*75::$GPGSV,3,3,15,29,11,082,19,31,67,022,28,32,36,109,27,10,01,161,*72::$GPVTG,290.2,T,290.2,M,60.3,N,111.6,K,D*14::$GLGSV,1,1,15,66,82,282,28,76,73,336,24,75,27,036,17*58",15890008,2017-01-15 16:09:40:739
9.4517,-0.8158,1.2246,9.6769,-1.0663,1.1792,-0.2252,0.2504,0.0455,0.035,-0.0188,0.0535,0,10.95,5.84,29.9,75.14,6.24,-83.05,3.1,983.59,82.8,19.2,69.434,40.072628,-80.91432,1051.61,1170.912316,,107.1,32.258064,290.3,13 / 15,"$GPRMC,210950,A,4004.357691,N,08054.859422,W,57.8,290.3,150117,0.0,E,D*34::$GPGSA,A,3,01,03,10,14,16,22,23,25,26,29,31,32,1.1,0.8,0.8*39::$GPGGA,210950,4004.357691,N,08054.859422,W,2,12,0.8,358.0,M,-32.0,M,,*73::$GPGSV,3,3,15,29,11,082,18,31,67,022,23,32,36,109,18,10,01,161,*74::$GPVTG,290.3,T,290.3,M,57.8,N,107.1,K,D*1B::$GLGSV,1,1,15,66,82,282,29,76,73,336,23,75,27,036,17*5E",15900007,2017-01-15 16:09:50:738
9.9766,-1.5951,1.09,9.595,-1.7448,1.0308,0.3817,0.1497,0.0591,0.0353,-0.0157,0.0654,0,10.71,7.38,29.09,71.26,10.28,-83.9,3.1,983.41,82.9,19.3,70.764,40.073524,-80.91753,1058.06,1170.912316,,105.3,29.032257,290.5,13 / 15,"$GPRMC,211000,A,4004.411415,N,08055.051794,W,56.9,290.5,150117,0.0,E,D*3B::$GPGSA,A,3,01,03,10,14,16,22,23,25,26,29,31,32,1.0,0.8,0.7*37::$GPGGA,211000,4004.411415,N,08055.051794,W,2,12,0.8,360.0,M,-32.0,M,,*71::$GPGSV,3,3,15,29,11,082,25,31,67,022,25,32,36,109,21,10,01,161,*76::$GPVTG,290.5,T,290.5,M,56.9,N,105.3,K,D*1B::$GLGSV,1,1,15,66,82,282,30,76,73,336,27,75,27,036,17*52",15910008,2017-01-15 16:10:00:739
9.845,-1.4491,1.236,9.6402,-1.4306,1.0911,0.2048,-0.0185,0.1449,0.0277,-0.0218,0.0664,0,12.61,6.04,30.22,73.66,8.39,-83.54,3.1,983.23,82.7,19.3,69.812,40.074436,-80.920746,1067.74,1193.136482,,104.4,29.032257,290.3,13 / 15,"$GPRMC,211010,A,4004.466102,N,08055.244752,W,56.4,290.3,150117,0.0,E,D*3E::$GPGSA,A,3,01,03,10,14,16,22,23,25,26,29,31,32,1.1,0.8,0.8*39::$GPGGA,211010,4004.466102,N,08055.244752,W,2,12,0.8,363.0,M,-32.0,M,,*7C::$GPGSV,3,3,15,29,11,082,16,31,67,022,24,32,36,109,15,10,01,161,*70::$GPVTG,290.3,T,290.3,M,56.4,N,104.4,K,D*10::$GLGSV,1,1,15,66,82,282,29,76,73,336,21,75,27,036,17*5C",15920007,2017-01-15 16:10:10:738
10.1005,-0.923,1.5353,9.6652,-1.1883,1.1586,0.4353,0.2654,0.3767,0.0396,-0.0457,0.0483,0,10.02,6.14,29.83,77.27,6.99,-83.16,3.1,983.73,82.8,19.2,69.342,40.07538,-80.92408,1051.61,1193.136482,,113.4,29.032257,290.2,13 / 15,"$GPRMC,211020,A,4004.522832,N,08055.444927,W,61.2,290.2,150117,0.0,E,D*3F::$GPGSA,A,3,01,03,10,14,16,22,23,25,26,29,31,32,1.0,0.8,0.7*37::$GPGGA,211020,4004.522832,N,08055.444927,W,2,12,0.8,358.0,M,-32.0,M,,*76::$GPGSV,3,2,15,22,47,277,29,23,12,300,23,25,23,043,21,26,51,175,28*7D::$GPVTG,290.2,T,290.2,M,61.2,N,113.4,K,D*14::$GLGSV,1,1,15,66,82,282,29,76,72,340,19,75,26,036,24*56",15930011,2017-01-15 16:10:20:742
