ACCELEROMETER X (m/s²),ACCELEROMETER Y (m/s²),ACCELEROMETER Z (m/s²),GRAVITY X (m/s²),GRAVITY Y (m/s²),GRAVITY Z (m/s²),LINEAR ACCELERATION X (m/s²),LINEAR ACCELERATION Y (m/s²),LINEAR ACCELERATION Z (m/s²),GYROSCOPE X (rad/s),GYROSCOPE Y (rad/s),GYROSCOPE Z (rad/s),LIGHT (lux),MAGNETIC FIELD X (μT),MAGNETIC FIELD Y (μT),MAGNETIC FIELD Z (μT),ORIENTATION Z (azimuth °),ORIENTATION X (pitch °),ORIENTATION Y (roll °),PROXIMITY (i),ATMOSPHERIC PRESSURE (hPa),TEMPERATURE (F),RELATIVE HUMIDITY (%),SOUND LEVEL (dB),LOCATION Latitude : ,LOCATION Longitude : ,LOCATION Altitude ( m),LOCATION Altitude-google ( m),LOCATION Altitude-atmospheric pressure ( m),LOCATION Speed ( Kmh),LOCATION Accuracy ( m),LOCATION ORIENTATION (°),Satellites in range,GPS NMEA,Time since start in ms ,YYYY-MO-DD HH-MI-SS_SSS
5.9011,4.0073,5.0512,3.0201,4.1209,8.3706,2.881,-0.1136,-3.3195,1.66,-1.1099,3.364,21974,1.08,-84.41,-3.53,197.33,-27.55,-26.57,8,1016.65,60.2,45.1,53.361,39.081585,-77.497055,212.9,313.7467108,,0,16.129032,,16 / 22,"$GPRMC,164450,A,3904.895125,N,07729.823454,W,0.0,,150117,0.0,E,D*28::$GPGSA,A,3,10,12,14,15,18,20,21,24,27,32,,,1.0,0.7,0.7*3A::$GPGGA,164450,3904.895125,N,07729.823454,W,2,10,0.7,108.0,M,-42.0,M,,*7E::$GPGSV,3,3,22,27,07,277,17,32,33,258,25,08,02,313,*4D::$GPVTG,,T,,M,0.0,N,0.0,K,D*26::$GLGSV,3,3,22,70,02,091,,80,05,021,,88,21,316,*51",7,2017-01-15 15:55:00:740
9.6786,-1.6287,0.8619,9.6257,-1.6507,0.8893,0.0528,0.0221,-0.0273,0.0417,-0.0411,0.0654,0,-12.32,-42.75,34.53,140.65,9.68,-84.7,3.1,1016.67,59.7,44.2,54.766,39.081577,-77.49706,190.32,313.7467108,,0,9.677419,,16 / 22,"$GPRMC,,V,,,,,,,,,,N*53::$GPGSA,A,1,,,,,,,,,,,,,,,*1E::$GPGGA,,,,,,0,,,,,,,,*66::$GPGSV,3,3,22,27,07,277,17,32,33,258,31,08,02,313,*48::$GPVTG,,T,,M,,N,,K,N*2C::$GLGSV,3,3,22,70,02,091,,80,05,021,,88,21,316,*51",10007,2017-01-15 15:55:10:738
9.6241,-1.5263,0.9008,9.6449,-1.5359,0.8878,-0.0208,0.0096,0.013,0.0442,-0.0451,0.0642,0,-16.6,-48.59,28.74,148.49,9.01,-84.74,3.1,1016.71,59.6,44.3,54.975,39.081573,-77.49705,196.77,312.8872524,,0,9.677419,,16 / 22,"$GPRMC,164510,A,3904.894277,N,07729.822923,W,0.0,,150117,0.0,E,D*24::$GPGSA,A,3,10,12,14,15,18,20,21,24,27,32,,,1.0,0.7,0.7*3A::$GPGGA,164510,3904.894277,N,07729.822923,W,2,10,0.7,104.0,M,-42.0,M,,*7E::$GPGSV,3,3,22,27,07,277,16,32,33,258,27,08,02,313,*4E::$GPVTG,,T,,M,0.0,N,0.0,K,D*26::$GLGSV,3,3,22,72,52,336,29,70,02,091,,80,05,021,*59",20007,2017-01-15 15:55:20:738
9.6031,-1.5407,0.8912,9.6458,-1.5376,0.8748,-0.0426,-0.0031,0.0164,0.0399,-0.0344,0.0618,0,-16.17,-46.32,28.02,148.32,9.02,-84.82,3.1,1016.61,59.7,43.8,40.856,39.081573,-77.49705,196.77,312.8872524,,0,9.677419,,16 / 22,"$GPRMC,164521,A,3904.894276,N,07729.822950,W,0.0,,150117,0.0,E,D*23::$GPGSA,A,3,10,12,14,15,18,20,21,24,27,32,,,1.0,0.7,0.7*3A::$GPGGA,164521,3904.894276,N,07729.822950,W,2,10,0.7,104.0,M,-42.0,M,,*79::$GPGSV,3,3,22,27,07,277,16,32,33,258,28,08,02,313,*41::$GPVTG,,T,,M,0.0,N,0.0,K,D*26::$GLGSV,3,3,22,72,52,336,29,70,02,091,,80,05,021,*59",30008,2017-01-15 15:55:30:738
9.6271,-1.5413,0.8751,9.6468,-1.5326,0.8724,-0.0197,-0.0087,0.0027,0.0426,-0.0359,0.063,0,-15.02,-46.54,28.32,148.85,8.99,-84.83,3.1,1016.67,60.7,43.2,28.799,39.081573,-77.49705,196.77,312.8872524,,0,9.677419,,16 / 22,"$GPRMC,164531,A,3904.894270,N,07729.822922,W,0.0,,150117,0.0,E,D*21::$GPGSA,A,3,10,12,14,15,18,20,21,24,27,32,,,1.0,0.7,0.7*3A::$GPGGA,164531,3904.894270,N,07729.822922,W,2,10,0.7,104.0,M,-42.0,M,,*7B::$GPGSV,3,3,22,27,07,277,16,32,33,258,30,08,02,313,*48::$GPVTG,,T,,M,0.0,N,0.0,K,D*26::$GLGSV,3,3,22,72,52,336,25,70,02,091,,80,05,021,*55",40007,2017-01-15 15:55:40:738
9.6289,-1.5251,0.8619,9.6468,-1.5346,0.8685,-0.0179,0.0095,-0.0066,0.0426,-0.0353,0.0621,0,-15.09,-47.85,29.26,148.51,9,-84.86,3.1,1016.58,61.1,42.8,38.498,39.081573,-77.49705,200,312.8872524,,0,9.677419,,16 / 22,"$GPRMC,164541,A,3904.894266,N,07729.822911,W,0.0,,150117,0.0,E,D*21::$GPGSA,A,3,10,12,14,15,18,20,21,24,27,32,,,1.0,0.7,0.7*3A::$GPGGA,164541,3904.894266,N,07729.822911,W,2,10,0.7,104.0,M,-42.0,M,,*7B::$GPGSV,3,3,22,27,07,277,13,32,33,258,27,08,02,313,*4B::$GPVTG,,T,,M,0.0,N,0.0,K,D*26::$GLGSV,3,3,22,72,52,336,27,70,02,091,,80,05,021,*57",50007,2017-01-15 15:55:50:739
9.6283,-1.5341,0.8553,9.6454,-1.5423,0.8702,-0.0172,0.0082,-0.0149,0.0371,-0.0331,0.0639,0,-15.21,-47.2,28.26,148.85,9.05,-84.85,3.1,1016.69,62,42,29.54,39.081573,-77.49705,200,312.8872524,,0,9.677419,,16 / 22,"$GPRMC,164551,A,3904.894270,N,07729.822902,W,0.0,,150117,0.0,E,D*25::$GPGSA,A,3,10,12,14,15,18,20,21,24,27,32,,,1.0,0.7,0.7*3A::$GPGGA,164551,3904.894270,N,07729.822902,W,2,10,0.7,104.0,M,-42.0,M,,*7F::$GPGSV,3,3,22,27,07,277,11,32,33,258,27,08,02,313,*49::$GPVTG,,T,,M,0.0,N,0.0,K,D*26::$GLGSV,3,3,22,72,52,336,23,70,02,091,,80,05,021,*53",60008,2017-01-15 15:56:00:741
9.6085,-1.5437,0.8871,9.6443,-1.5457,0.8769,-0.0357,0.002,0.0099,0.046,-0.0402,0.063,0,-14.72,-47.12,28.26,148.84,9.07,-84.8,3.1,1016.67,62.4,41.6,23.197,39.081573,-77.49705,200,312.8872524,,0,9.677419,,16 / 22,"$GPRMC,164600,A,3904.894264,N,07729.822882,W,0.0,,150117,0.0,E,D*2E::$GPGSA,A,3,10,12,14,15,18,20,21,24,27,32,,,1.0,0.7,0.7*3A::$GPGGA,164600,3904.894264,N,07729.822882,W,2,10,0.7,104.0,M,-42.0,M,,*74::$GPGSV,3,3,22,27,07,277,13,32,33,258,31,08,02,313,*4C::$GPVTG,,T,,M,0.0,N,0.0,K,D*26::$GLGSV,3,3,22,72,52,336,25,70,02,091,,80,05,021,*55",70007,2017-01-15 15:56:10:739
9.6169,-1.5359,0.8589,9.6448,-1.5466,0.8691,-0.0279,0.0108,-0.0101,0.0435,-0.0396,0.0633,0,-14.68,-47.12,28.25,148.85,9.07,-84.85,3.1,1016.6,62.9,41.2,23.56,39.081573,-77.49705,200,312.8872524,,0,9.677419,,16 / 22,"$GPRMC,164610,A,3904.894258,N,07729.822870,W,0.0,,150117,0.0,E,D*2D::$GPGSA,A,3,10,12,14,15,18,20,21,24,27,32,,,1.0,0.7,0.7*3A::$GPGGA,164610,3904.894258,N,07729.822870,W,2,10,0.7,104.0,M,-42.0,M,,*77::$GPGSV,3,3,22,27,07,277,14,32,33,260,32,08,02,313,*43::$GPVTG,,T,,M,0.0,N,0.0,K,D*26::$GLGSV,3,3,22,72,52,336,25,70,02,091,,80,05,021,*55",80008,2017-01-15 15:56:20:738
9.6133,-1.555,0.8559,9.6451,-1.5452,0.8684,-0.0318,-0.0099,-0.0125,0.0438,-0.0417,0.0621,0,-13.22,-47.71,29.53,147.65,9.07,-84.86,3.1,1016.6,63.1,41.1,29.559,39.081573,-77.49705,200,312.8872524,,0,9.677419,,16 / 22,"$GPRMC,164620,A,3904.894257,N,07729.822863,W,0.0,,150117,0.0,E,D*23::$GPGSA,A,1,,,,,,,,,,,,,,,*1E::$GPGGA,164620,3904.894257,N,07729.822863,W,2,10,0.7,104.0,M,-42.0,M,,*79::$GPGSV,3,3,22,27,07,277,17,32,33,260,34,08,02,313,*46::$GPVTG,,T,,M,0.0,N,0.0,K,D*26::$GLGSV,3,3,22,72,52,336,24,70,02,091,,80,05,021,*54",90007,2017-01-15 15:56:30:738
9.745,-1.6747,1.0175,9.6441,-1.5427,0.8839,0.1009,-0.132,0.1337,0.0399,-0.0335,0.0651,0,-14.25,-45.52,32.49,144.9,9.04,-84.77,3.1,1016.61,63.3,41,42.177,39.081573,-77.49705,200,312.8447,,0,29.032257,,16 / 22,"$GPRMC,,V,,,,,,,,,,N*53::$GPGSA,A,1,,,,,,,,,,,,,,,*1E::$GPGGA,,,,,,0,,,,,,,,*66::$GPGSV,3,3,22,27,07,277,15,32,33,260,33,08,02,313,*43::$GPVTG,,T,,M,,N,,K,N*2C::$GLGSV,3,3,22,72,52,336,27,70,02,091,,80,05,021,*57",100008,2017-01-15 15:56:40:738
9.5894,-1.5365,0.9074,9.6429,-1.5498,0.8848,-0.0535,0.0133,0.0226,0.046,-0.0356,0.0621,0,-15.45,-47.77,27.98,149.34,9.09,-84.76,3.1,1016.79,63.5,40.9,51.011,39.081573,-77.49705,200,312.8447,,0,29.032257,,16 / 22,"$GPRMC,164640,A,3904.894260,N,07729.822832,W,0.0,,150117,0.0,E,D*25::$GPGSA,A,3,10,12,14,15,18,20,21,24,27,32,,,1.0,0.7,0.7*3A::$GPGGA,164640,3904.894260,N,07729.822832,W,2,10,0.7,105.0,M,-42.0,M,,*7E::$GPGSV,3,3,22,27,07,277,18,32,33,260,27,08,02,313,*4B::$GPVTG,,T,,M,0.0,N,0.0,K,D*26::$GLGSV,3,3,22,72,52,336,27,70,02,091,,80,05,021,*57",110007,2017-01-15 15:56:50:738
9.5954,-1.5365,0.9062,9.6432,-1.5423,0.8944,-0.0479,0.0058,0.0118,0.0405,-0.035,0.0609,0,-12.72,-48.39,29.72,147.62,9.05,-84.71,3.1,1016.81,63.5,41.1,52.219,39.081573,-77.49705,200,312.8447,,0,29.032257,,16 / 22,"$GPRMC,164651,A,3904.894267,N,07729.822835,W,0.0,,150117,0.0,E,D*25::$GPGSA,A,3,10,12,14,15,18,20,21,24,27,32,,,1.0,0.7,0.7*3A::$GPGGA,164651,3904.894267,N,07729.822835,W,2,10,0.7,105.0,M,-42.0,M,,*7E::$GPGSV,3,3,22,27,07,277,15,32,33,260,31,08,02,313,*41::$GPVTG,,T,,M,0.0,N,0.0,K,D*26::$GLGSV,3,3,22,72,52,337,26,70,01,092,,80,04,019,*5D",120008,2017-01-15 15:57:00:739
9.6115,-1.5095,0.9218,9.644,-1.5404,0.8891,-0.0325,0.0309,0.0327,0.0472,-0.038,0.0624,0,-13.04,-48.08,29.39,148.47,9.04,-84.73,3.1,1016.8,63.5,41.1,47.039,39.081573,-77.49705,200,312.8447,,0,29.032257,,16 / 22,"$GPRMC,164700,A,3904.894265,N,07729.822824,W,0.0,,150117,0.0,E,D*22::$GPGSA,A,3,10,12,14,15,18,20,21,24,27,32,,,1.0,0.7,0.7*3A::$GPGGA,164700,3904.894265,N,07729.822824,W,2,10,0.7,105.0,M,-42.0,M,,*79::$GPGSV,3,3,22,27,07,277,19,32,33,260,29,08,02,313,*44::$GPVTG,,T,,M,0.0,N,0.0,K,D*26::$GLGSV,3,3,22,72,52,337,28,70,01,092,,80,04,019,*53",130007,2017-01-15 15:57:10:738
9.6073,-1.4928,0.9032,9.6434,-1.5439,0.8902,-0.036,0.0511,0.013,0.0472,-0.0386,0.059,0,-13.05,-48.35,28.78,148.47,9.06,-84.72,3.1,1016.86,63.5,41,56.693,39.081573,-77.49705,200,312.8447,,0,29.032257,,16 / 22,"$GPRMC,,V,,,,,,,,,,N*53::$GPGSA,A,1,,,,,,,,,,,,,,,*1E::$GPGGA,,,,,,0,,,,,,,,*66::$GPGSV,3,3,22,27,07,277,21,32,33,260,30,08,02,313,*47::$GPVTG,,T,,M,,N,,K,N*2C::$GLGSV,3,1,22,74,40,139,21,86,08,208,22,73,37,053,28,75,03,175,24*6C",140008,2017-01-15 15:57:20:738
9.6157,-1.5616,0.917,9.6427,-1.5481,0.8903,-0.027,-0.0136,0.0267,0.0469,-0.0393,0.0621,0,-13.33,-48.38,29.09,148.47,9.08,-84.73,3.1,1016.84,63.6,40.9,49.337,39.081573,-77.49705,200,312.8447,,0,29.032257,,16 / 22,"$GPRMC,164720,A,3904.894255,N,07729.822812,W,0.0,,150117,0.0,E,D*26::$GPGSA,A,3,10,12,14,15,18,20,21,24,27,32,,,1.0,0.7,0.7*3A::$GPGGA,164720,3904.894255,N,07729.822812,W,2,10,0.7,105.0,M,-42.0,M,,*7D::$GPGSV,3,3,22,27,07,277,16,32,33,260,30,08,02,313,*43::$GPVTG,,T,,M,0.0,N,0.0,K,D*26::$GLGSV,3,3,22,72,52,337,29,70,01,092,,80,04,019,*52",150007,2017-01-15 15:57:30:738
9.5822,-1.4473,0.8625,9.6426,-1.5489,0.8894,-0.0604,0.1016,-0.0269,0.0384,-0.0362,0.0639,0,-13.73,-48.38,29.4,148.48,9.09,-84.73,3.1,1016.82,63.4,41.1,48.241,39.081837,-77.49731,,314.5591609,,,161.29031,,16 / 22,"$GPRMC,164730,A,3904.894249,N,07729.822806,W,0.0,,150117,0.0,E,D*2F::$GPGSA,A,3,10,12,14,15,18,20,21,24,27,32,,,1.0,0.7,0.7*3A::$GPGGA,164730,3904.894249,N,07729.822806,W,2,10,0.7,105.0,M,-42.0,M,,*74::$GPGSV,3,3,22,27,07,277,14,32,33,260,30,08,02,313,*41::$GPVTG,,T,,M,0.0,N,0.0,K,D*26::$GLGSV,3,3,22,72,52,337,28,70,01,092,,80,04,019,*53",160007,2017-01-15 15:57:40:739
9.5768,-1.4629,0.8565,9.6425,-1.5483,0.8924,-0.0656,0.0854,-0.0358,0.049,-0.0393,0.0593,0,-13.1,-48.33,28.72,148.47,9.08,-84.71,3.1,1016.9,63.4,41.2,48.308,39.081837,-77.49731,,314.5591609,,,161.29031,,16 / 22,"$GPRMC,164741,A,3904.894248,N,07729.822808,W,0.0,,150117,0.0,E,D*26::$GPGSA,A,3,10,12,14,15,18,20,21,24,27,32,,,1.0,0.7,0.7*3A::$GPGGA,164741,3904.894248,N,07729.822808,W,2,10,0.7,105.0,M,-42.0,M,,*7D::$GPGSV,3,3,22,27,07,277,12,32,33,260,28,08,02,313,*4E::$GPVTG,,T,,M,0.0,N,0.0,K,D*26::$GLGSV,3,3,22,72,52,337,29,70,01,092,,80,04,019,*52",170008,2017-01-15 15:57:50:738
9.6756,-1.5862,0.9266,9.6419,-1.5526,0.8905,0.0336,-0.0336,0.0361,0.0451,-0.038,0.0685,0,-13.13,-48.64,28.53,148.98,9.11,-84.72,3.1,1016.81,63.5,41.4,50.667,39.081783,-77.49718,,314.5591609,,,118.448395,,16 / 22,"$GPRMC,164751,A,3904.894251,N,07729.822810,W,0.0,,150117,0.0,E,D*26::$GPGSA,A,3,10,12,14,15,18,20,21,24,27,32,,,1.0,0.7,0.7*3A::$GPGGA,164751,3904.894251,N,07729.822810,W,2,10,0.7,105.0,M,-42.0,M,,*7D::$GPGSV,3,3,22,27,07,275,12,32,34,260,29,08,02,313,*4A::$GPVTG,,T,,M,0.0,N,0.0,K,D*26::$GLGSV,3,3,22,72,52,337,28,70,01,092,,80,04,019,*53",180007,2017-01-15 15:58:00:738
9.5834,-1.4766,0.8595,9.6429,-1.5468,0.8903,-0.0595,0.0702,-0.0308,0.0463,-0.0325,0.0624,0,-13.2,-48.59,28.22,149.83,9.08,-84.72,3.1,1016.81,63.5,41.1,48.092,39.081783,-77.49718,,314.5591609,,,118.448395,,16 / 22,"$GPRMC,164801,A,3904.894258,N,07729.822804,W,0.0,,150117,0.0,E,D*20::$GPGSA,A,3,10,12,14,15,18,20,21,24,27,32,,,1.0,0.7,0.7*3A::$GPGGA,164801,3904.894258,N,07729.822804,W,2,10,0.7,105.0,M,-42.0,M,,*7B::$GPGSV,3,3,22,27,07,275,20,32,34,260,29,08,02,313,*4B::$GPVTG,,T,,M,0.0,N,0.0,K,D*26::$GLGSV,3,3,22,72,52,337,28,70,01,092,,80,04,019,*53",190010,2017-01-15 15:58:10:739
9.6828,-1.5868,0.9044,9.6434,-1.5457,0.8868,0.0394,-0.0411,0.0176,0.0503,-0.035,0.0581,0,-12.77,-48.56,29.53,148.15,9.07,-84.75,3.1,1016.84,63.5,41.4,48.453,39.081837,-77.49731,,314.5591609,,,161.29031,,16 / 22,"$GPRMC,,V,,,,,,,,,,N*53::$GPGSA,A,1,,,,,,,,,,,,,,,*1E::$GPGGA,164810,3904.894256,N,07729.822785,W,2,10,0.7,105.0,M,-42.0,M,,*73::$GPGSV,3,3,22,27,07,275,21,32,34,260,30,08,02,313,*42::$GPVTG,,T,,M,,N,,K,N*2C::$GLGSV,3,3,22,72,52,337,27,70,01,092,,80,04,019,*5C",200007,2017-01-15 15:58:20:738
9.5828,-1.5107,0.8751,9.6425,-1.5484,0.8913,-0.043,-0.0241,0.01,0.0469,-0.0371,0.0596,0,-12.88,-48.88,29.23,148.98,9.08,-84.72,3.1,1016.79,63.6,41.6,47.462,39.081573,-77.49705,203.23,314.5591609,,0,29.032257,,16 / 22,"$GPRMC,164821,A,3904.894257,N,07729.822771,W,0.0,,150117,0.0,E,D*20::$GPGSA,A,3,10,12,14,15,18,20,21,24,27,32,,,1.0,0.7,0.7*3A::$GPGGA,164821,3904.894257,N,07729.822771,W,2,10,0.7,105.0,M,-42.0,M,,*7B::$GPGSV,3,3,22,27,07,275,18,32,34,260,28,08,02,313,*41::$GPVTG,,T,,M,0.0,N,0.0,K,D*26::$GLGSV,3,3,22,72,52,337,26,70,01,092,,80,04,019,*5D",210007,2017-01-15 15:58:30:739
9.6331,-1.5682,0.8984,9.6422,-1.5512,0.8903,-0.0091,-0.017,0.0081,0.0423,-0.0414,0.0612,0,-13.18,-48.57,29.22,148.98,9.1,-84.72,3.1,1016.86,63.3,42.1,47.241,39.081573,-77.49705,203.23,314.5591609,,0,29.032257,,16 / 22,"$GPRMC,164831,A,3904.894265,N,07729.822777,W,0.0,,150117,0.0,E,D*26::$GPGSA,A,3,10,12,14,15,18,20,21,24,27,32,,,1.0,0.7,0.8*35::$GPGGA,164831,3904.894265,N,07729.822777,W,2,10,0.7,105.0,M,-42.0,M,,*7D::$GPGSV,3,3,22,32,34,260,30,08,02,313,,12,05,122,*44::$GPVTG,,T,,M,0.0,N,0.0,K,D*26::$GLGSV,3,3,22,72,52,337,26,70,01,092,,80,04,019,*5D",220008,2017-01-15 15:58:40:739
9.5906,-1.5245,0.89,9.6428,-1.5506,0.8844,-0.0522,0.0261,0.0057,0.0448,-0.0405,0.0618,0,-13.25,-48.17,29.1,148.48,9.1,-84.76,3.1,1016.88,63.6,42.1,47.633,39.081573,-77.49705,203.23,314.5591609,,0,29.032257,,16 / 22,"$GPRMC,164840,A,3904.894276,N,07729.822773,W,0.0,,150117,0.0,E,D*26::$GPGSA,A,3,10,12,14,15,18,20,21,24,27,32,,,1.0,0.7,0.7*3A::$GPGGA,164840,3904.894276,N,07729.822773,W,2,10,0.7,105.0,M,-42.0,M,,*7D::$GPGSV,3,3,22,27,07,275,18,32,34,260,29,08,02,313,*40::$GPVTG,,T,,M,0.0,N,0.0,K,D*26::$GLGSV,3,3,22,72,52,337,27,70,01,092,,80,04,019,*5C",230007,2017-01-15 15:58:50:738
9.6007,-1.5221,0.8691,9.642,-1.5542,0.8869,-0.0359,0.0015,0.0259,0.0423,-0.0304,0.0648,0,-14.49,-47.84,27.57,149.34,9.12,-84.74,3.1,1016.87,63.4,42.3,48.628,39.081573,-77.49705,203.23,314.5591609,,0,29.032257,,16 / 22,"$GPRMC,,V,,,,,,,,,,N*53::$GPGSA,A,1,,,,,,,,,,,,,,,*1E::$GPGGA,,,,,,0,,,,,,,,*66::$GPGSV,3,3,22,27,07,275,17,32,34,260,27,08,02,310,*42::$GPVTG,,T,,M,,N,,K,N*2C::$GLGSV,3,1,22,74,41,137,22,86,07,208,25,73,37,053,28,75,04,175,23*68",240007,2017-01-15 15:59:00:739
9.5648,-1.4832,0.8859,9.643,-1.5491,0.8848,-0.0782,0.0659,0.001,0.0484,-0.0393,0.0633,0,-14.54,-47.48,27.58,148.83,9.09,-84.76,3.1,1016.84,63.4,42.5,48.112,39.081573,-77.49705,203.23,314.5591609,,0,29.032257,,16 / 22,"$GPRMC,,V,,,,,,,,,,N*53::$GPGSA,A,1,,,,,,,,,,,,,,,*1E::$GPGGA,,,,,,0,,,,,,,,*66::$GPGSV,3,2,22,18,79,018,30,20,21,115,19,21,45,195,34,24,56,075,22*76::$GPVTG,,T,,M,,N,,K,N*2C::$GLGSV,3,3,22,70,00,000,,80,03,019,,88,22,314,*57",250007,2017-01-15 15:59:10:738
9.6037,-1.5479,0.8877,9.6431,-1.5463,0.8889,0.0121,-0.0381,0.0077,0.0466,-0.0356,0.0618,0,-14.16,-47.78,27.59,149.34,9.07,-84.74,3.1,1016.8,63.4,42.5,50.27,39.081573,-77.49705,203.23,314.5591609,,0,29.032257,,16 / 22,"$GPRMC,164910,A,3904.894286,N,07729.822761,W,0.0,,150117,0.0,E,D*2E::$GPGSA,A,3,10,12,14,15,18,20,21,24,27,32,,,1.1,0.8,0.7*34::$GPGGA,164910,3904.894286,N,07729.822761,W,2,10,0.8,105.0,M,-42.0,M,,*7A::$GPGSV,3,3,22,27,07,275,15,32,34,260,30,08,02,310,*46::$GPVTG,,T,,M,0.0,N,0.0,K,D*26::$GLGSV,3,3,22,70,00,000,,80,03,019,,88,22,314,*57",260009,2017-01-15 15:59:20:738
9.6061,-1.573,0.8781,9.6434,-1.5476,0.8835,-0.0372,-0.0254,-0.0054,0.046,-0.0359,0.0621,0,-14.39,-47.82,27.6,149.34,9.08,-84.77,3.1,1016.82,63.4,42.7,47.522,39.081573,-77.49705,203.23,314.5591609,,0,29.032257,,16 / 22,"$GPRMC,164920,A,3904.894289,N,07729.822756,W,0.0,,150117,0.0,E,D*26::$GPGSA,A,3,10,12,14,15,18,20,21,24,27,32,,,1.1,0.9,0.7*35::$GPGGA,164920,3904.894289,N,07729.822756,W,2,10,0.9,105.0,M,-42.0,M,,*73::$GPGSV,3,3,22,27,07,275,18,32,34,260,31,08,02,310,*4A::$GPVTG,,T,,M,0.0,N,0.0,K,D*26::$GLGSV,3,3,22,70,00,000,,80,03,019,,88,22,314,*57",270008,2017-01-15 15:59:30:738
9.6271,-1.5796,0.9092,9.6429,-1.5459,0.8915,-0.0158,-0.0337,0.0177,0.0423,-0.035,0.0648,0,-14.73,-47.83,27.3,150.2,9.06,-84.72,3.1,1016.81,63.4,42.9,51.988,39.081573,-77.49705,203.23,314.5591609,,0,29.032257,,16 / 22,"$GPRMC,164931,A,3904.894286,N,07729.822743,W,0.0,,150117,0.0,E,D*2D::$GPGSA,A,3,10,12,14,15,18,20,21,24,27,32,,,1.0,0.7,0.7*3A::$GPGGA,164931,3904.894286,N,07729.822743,W,2,10,0.7,105.0,M,-42.0,M,,*76::$GPGSV,3,3,22,27,06,275,20,32,34,261,31,08,02,310,*41::$GPVTG,,T,,M,0.0,N,0.0,K,D*26::$GLGSV,3,3,22,70,00,000,,80,03,019,,88,22,314,*57",280008,2017-01-15 15:59:40:739
9.4499,-2.2194,1.1049,9.5847,-1.746,1.1201,-0.1348,-0.4734,-0.0152,0.101,-0.0542,0.0697,0,-15.08,-40.77,35.12,139.18,10.16,-83.33,3.1,1016.86,63.7,42.8,53.963,39.08155,-77.49703,212.9,312.8180421,,1.8,29.032257,327.9,16 / 22,"$GPRMC,164940,A,3904.893044,N,07729.821967,W,1.0,327.9,150117,0.0,E,D*0B::$GPGSA,A,3,10,12,14,15,18,20,21,24,27,32,,,1.0,0.7,0.7*3A::$GPGGA,164940,3904.893044,N,07729.821967,W,2,10,0.7,108.0,M,-42.0,M,,*7D::$GPGSV,3,3,22,27,06,275,16,32,34,261,24,08,02,310,*40::$GPVTG,327.9,T,327.9,M,1.0,N,1.8,K,D*2E::$GLGSV,3,3,22,72,52,338,25,70,00,000,,80,03,019,*5C",290011,2017-01-15 15:59:50:738
9.5966,-1.4635,0.914,9.6669,-1.3499,0.9482,-0.0703,-0.1136,-0.0342,0.0506,-0.0408,0.0624,0,-15.84,-45.79,30.03,146.43,7.9,-84.4,3.1,1016.65,63.7,42.9,51.99,39.08157,-77.49708,206.45,312.8180421,,0,29.032257,,16 / 22,"$GPRMC,164951,A,3904.894112,N,07729.824655,W,0.0,,150117,0.0,E,D*25::$GPGSA,A,3,10,12,14,15,18,20,21,24,27,32,,,1.0,0.7,0.7*3A::$GPGGA,164951,3904.894112,N,07729.824655,W,2,10,0.7,106.0,M,-42.0,M,,*7D::$GPGSV,3,3,22,32,34,261,30,08,02,310,,20,21,115,*45::$GPVTG,,T,,M,0.0,N,0.0,K,D*26::$GLGSV,3,3,22,72,52,338,27,70,00,000,,80,03,019,*5E",300007,2017-01-15 16:00:00:738
9.6211,-1.5413,0.908,9.6389,-1.5556,0.9175,-0.0178,0.0143,-0.0095,0.05,-0.0371,0.0621,0,-18.45,-45.73,32.23,144.91,9.13,-84.56,3.1,1016.65,64.1,42.7,52.27,39.08157,-77.49706,212.9,312.8995927,,0,29.032257,,16 / 22,"$GPRMC,,V,,,,,,,,,,N*53::$GPGSA,A,1,,,,,,,,,,,,,,,*1E::$GPGGA,,,,,,0,,,,,,,,*66::$GPGSV,3,1,22,10,51,314,29,12,06,120,16,14,12,250,24,15,24,061,26*74::$GPVTG,,T,,M,,N,,K,N*2C::$GLGSV,3,3,22,72,52,338,20,70,00,000,,80,03,019,*59",310007,2017-01-15 16:00:10:738
9.575,-1.5006,0.9146,9.6391,-1.5503,0.9247,-0.0641,0.0498,-0.0101,0.0472,-0.0393,0.0642,0,-17.77,-45.44,32.25,144.34,9.1,-84.52,3.1,1016.6,64.3,42.8,49.925,39.081566,-77.49706,216.13,312.8995927,,0,29.032257,,16 / 22,"$GPRMC,165010,A,3904.893918,N,07729.823855,W,0.0,,150117,0.0,E,D*24::$GPGSA,A,3,10,12,14,15,18,20,21,24,27,32,,,1.0,0.7,0.7*3A::$GPGGA,165010,3904.893918,N,07729.823855,W,2,10,0.7,109.0,M,-42.0,M,,*73::$GPGSV,3,1,22,10,51,314,31,12,06,120,22,14,12,250,22,15,24,061,27*7D::$GPVTG,,T,,M,0.0,N,0.0,K,D*26::$GLGSV,3,2,22,65,16,295,18,88,22,314,19,87,30,260,15,71,40,063,24*64",320007,2017-01-15 16:00:20:739
9.5654,-1.5562,0.9236,9.6401,-1.5504,0.9134,-0.0747,-0.0058,0.0102,0.0469,-0.0371,0.0624,0,-18.32,-45.46,32.25,144.35,9.1,-84.59,3.1,1016.59,64.4,43,51.735,39.081566,-77.49706,216.13,312.8995927,,0,29.032257,,16 / 22,"$GPRMC,165021,A,3904.893913,N,07729.823862,W,0.0,,150117,0.0,E,D*29::$GPGSA,A,3,10,12,14,15,18,20,21,24,27,32,,,1.0,0.7,0.7*3A::$GPGGA,165021,3904.893913,N,07729.823862,W,2,10,0.7,109.0,M,-42.0,M,,*7E::$GPGSV,3,3,22,27,06,275,14,32,34,261,25,08,02,310,*43::$GPVTG,,T,,M,0.0,N,0.0,K,D*26::$GLGSV,3,3,22,72,52,338,30,70,00,000,,80,03,019,*58",330007,2017-01-15 16:00:30:739
9.5247,-1.5203,0.917,9.6401,-1.54,0.931,-0.1154,0.0197,-0.0141,0.0454,-0.038,0.0645,0,-15.55,-45.53,30.41,146.52,9.04,-84.48,3.1,1016.55,64.4,43,61.094,39.081566,-77.49706,216.13,312.8508076,,0,29.032257,,16 / 22,"$GPRMC,165030,A,3904.893846,N,07729.823797,W,0.0,,150117,0.0,E,D*2D::$GPGSA,A,3,10,12,14,15,18,20,21,24,27,32,,,1.0,0.7,0.7*3A::$GPGGA,165030,3904.893846,N,07729.823797,W,2,10,0.7,109.0,M,-42.0,M,,*7A::$GPGSV,3,3,22,27,06,275,19,32,34,261,30,08,02,310,*4A::$GPVTG,,T,,M,0.0,N,0.0,K,D*26::$GLGSV,3,3,22,72,52,338,31,70,00,000,,80,03,019,*59",340008,2017-01-15 16:00:40:738
9.6193,-1.2288,0.9948,9.5722,-1.8506,1.0578,0.0471,0.6218,-0.063,0.0506,-0.053,0.0578,0,-13.64,-40.82,35.77,138.47,10.9,-83.69,3.1,1016.81,64.4,43.3,53.234,39.08156,-77.497055,219.35,312.8508076,,1.8,29.032257,327.9,16 / 22,"$GPRMC,,V,,,,,,,,,,N*53::$GPGSA,A,1,,,,,,,,,,,,,,,*1E::$GPGGA,,,,,,0,,,,,,,,*66::$GPGSV,3,3,22,32,34,261,26,08,02,310,,20,21,115,*42::$GPVTG,,T,,M,,N,,K,N*2C::$GLGSV,3,3,22,72,52,338,25,70,00,000,,80,03,019,*5C",350009,2017-01-15 16:00:50:738
9.5277,-1.4329,0.3687,9.587,-1.9217,-0.7524,-0.0593,0.4888,1.1211,0.2531,-0.0402,0.1293,0,-12.37,-20.54,9.72,158.64,11.3,-94.49,3.1,1016.77,64.6,43,57.294,39.08141,-77.497246,206.45,312.843824,,18,29.032257,204.3,16 / 22,"$GPRMC,,V,,,,,,,,,,N*53::$GPGSA,A,1,,,,,,,,,,,,,,,*1E::$GPGGA,,,,,,0,,,,,,,,*66::$GPGSV,3,3,22,27,06,275,21,32,34,261,27,08,02,310,*47::$GPVTG,,T,,M,,N,,K,N*2C::$GLGSV,3,3,22,72,53,340,22,70,00,000,,80,02,019,*54",360008,2017-01-15 16:01:00:738
9.6612,-1.5676,0.9301,9.621,-1.6203,0.9911,0.0402,0.0527,-0.0609,0.0384,-0.038,0.0642,0,-11.05,-20.47,10.42,152.6,9.51,-84.12,3.1,1016.85,64.6,43,47.188,39.081207,-77.49707,206.45,312.843824,,0,29.032257,,16 / 22,"$GPRMC,165101,A,3904.872337,N,07729.824132,W,0.0,,150117,0.0,E,D*22::$GPGSA,A,3,10,12,14,15,18,20,21,24,27,32,,,1.0,0.7,0.7*3A::$GPGGA,165101,3904.872337,N,07729.824132,W,2,10,0.7,106.0,M,-42.0,M,,*7A::$GPGSV,3,3,22,27,06,275,24,32,34,261,30,08,02,310,*44::$GPVTG,,T,,M,0.0,N,0.0,K,D*26::$GLGSV,3,3,22,72,53,340,25,70,00,000,,80,02,019,*53",370008,2017-01-15 16:01:10:738
8.822,-2.5612,-0.0916,9.4968,-2.4286,0.2877,-0.6748,-0.1326,-0.3793,0.4605,-0.0475,0.0832,0,-12.44,-29.55,0.97,177.52,14.28,-88.35,3.1,1016.77,64.6,42.8,61.157,39.081192,-77.496994,206.45,311.6675254,,9.9,29.032257,112,16 / 22,"$GPRMC,165111,A,3904.871568,N,07729.819452,W,5.3,112.0,150117,0.0,E,D*0B::$GPGSA,A,3,10,12,14,15,18,20,21,24,27,32,,,1.0,0.7,0.7*3A::$GPGGA,165111,3904.871568,N,07729.819452,W,2,10,0.7,106.0,M,-42.0,M,,*79::$GPGSV,3,3,22,27,06,274,25,32,35,261,29,08,02,310,*4D::$GPVTG,112.0,T,112.0,M,5.3,N,9.9,K,D*20::$GLGSV,3,3,22,72,53,340,24,70,00,000,,80,02,019,*52",380007,2017-01-15 16:01:20:738
11.2438,-1.6789,1.1343,9.605,-1.4586,1.337,1.6388,-0.2204,-0.2027,0.042,-0.068,0.1149,0,-14.98,-43.22,0.22,177.33,8.5,-82,3.1,1016.59,64.7,42.8,61.099,39.081493,-77.496445,209.68,311.6675254,,30.6,29.032257,53,16 / 22,"$GPRMC,165120,A,3904.889461,N,07729.786921,W,16.5,53.0,150117,0.0,E,D*06::$GPGSA,A,3,10,12,14,15,18,20,21,24,27,32,,,1.0,0.7,0.7*3A::$GPGGA,165120,3904.889461,N,07729.786921,W,2,10,0.7,107.0,M,-42.0,M,,*75::$GPGSV,3,3,22,24,55,073,31,27,06,274,18,32,35,261,30*43::$GPVTG,53.0,T,53.0,M,16.5,N,30.6,K,D*21::$GLGSV,3,3,22,72,53,340,29,70,00,000,,80,02,019,*5F",390007,2017-01-15 16:01:30:739
10.1478,-0.844,1.2504,9.6851,-0.7175,1.3619,0.4628,-0.1264,-0.1116,0.0561,-0.027,0.0743,0,-12.45,-42.63,-1.58,180.4,4.18,-81.99,3.1,1016.64,64.8,42.6,56.769,39.08192,-77.49571,212.9,313.9583961,,22.5,29.032257,53.9,16 / 22,"$GPRMC,165130,A,3904.915108,N,07729.742679,W,12.1,53.9,150117,0.0,E,D*0A::$GPGSA,A,3,10,12,14,15,18,20,21,24,27,32,,,1.0,0.7,0.7*3A::$GPGGA,165130,3904.915108,N,07729.742679,W,2,10,0.7,108.0,M,-42.0,M,,*7F::$GPGSV,3,3,22,24,55,073,30,27,06,274,17,32,35,261,30*4D::$GPVTG,53.9,T,53.9,M,12.1,N,22.5,K,D*21::$GLGSV,3,3,22,72,53,340,25,70,00,000,,80,02,019,*53",400007,2017-01-15 16:01:40:738
8.928,-2.0081,-1.7125,9.2944,-2.8692,-1.2458,-0.3664,0.861,-0.4666,0.4287,-0.0893,0.1284,0,-15.6,-52.4,22.24,160.38,17.01,-97.63,3.1,1016.76,65,42.3,62.928,39.0821,-77.49543,203.23,313.9583961,,17.1,29.032257,31.4,16 / 22,"$GPRMC,,V,,,,,,,,,,N*53::$GPGSA,A,1,,,,,,,,,,,,,,,*1E::$GPGGA,165140,3904.926031,N,07729.726074,W,2,10,0.7,105.0,M,-42.0,M,,*77::$GPGSV,3,3,22,27,06,274,19,32,35,261,28,08,02,310,*43::$GPVTG,,T,,M,,N,,K,N*2C::$GLGSV,3,3,22,72,53,340,30,70,00,000,,80,02,019,*57",410008,2017-01-15 16:01:50:739
9.9599,-0.5596,0.7512,9.7678,-0.1361,0.8609,0.192,-0.4235,-0.1097,0.0533,-0.0225,0.074,0,-16.67,-48.55,26.85,150.01,0.8,-84.96,3.1,1016.74,65.1,42.4,51.788,39.08265,-77.495895,203.23,313.8125917,,17.1,32.258064,323.1,16 / 22,"$GPRMC,,V,,,,,,,,,,N*53::$GPGSA,A,1,,,,,,,,,,,,,,,*1E::$GPGGA,,,,,,0,,,,,,,,*66::$GPGSV,3,3,22,24,55,073,26,27,06,274,20,32,35,261,30*4E::$GPVTG,,T,,M,,N,,K,N*2C::$GLGSV,3,3,22,72,53,340,30,70,00,000,,80,02,019,*57",420007,2017-01-15 16:02:00:739
9.6181,-1.5508,0.744,9.6384,-1.6357,0.7727,-0.0203,0.0848,-0.0287,0.042,-0.0386,0.0627,0,-16.7,-49.1,29.43,149.19,9.6,-85.41,3.1,1016.64,65.2,42.3,39.977,39.08272,-77.49597,187.1,313.8125917,,0,29.032257,,16 / 22,"$GPRMC,165201,A,3904.963163,N,07729.757694,W,0.0,,150117,0.0,E,D*23::$GPGSA,A,3,10,12,14,15,18,20,21,24,27,32,,,1.0,0.7,0.7*3A::$GPGGA,165201,3904.963163,N,07729.757694,W,2,10,0.7,99.0,M,-42.0,M,,*4C::$GPGSV,3,3,22,24,55,073,24,27,06,274,23,32,35,261,28*46::$GPVTG,,T,,M,0.0,N,0.0,K,D*26::$GLGSV,3,3,22,72,53,340,29,70,00,000,,80,02,019,*5F",430010,2017-01-15 16:02:10:738
9.6295,-1.4964,0.7655,9.6566,-1.5251,0.7714,-0.0349,0.0252,-0.0124,0.0387,-0.0331,0.0584,0,-16.57,-49.37,29.12,149.16,8.95,-85.44,3.1,1016.64,65.3,42.4,40.971,39.08271,-77.49596,183.87,313.8125917,,0,29.032257,,16 / 22,"$GPRMC,165211,A,3904.962802,N,07729.757600,W,0.0,,150117,0.0,E,D*20::$GPGSA,A,3,10,12,14,15,18,20,21,24,27,32,,,1.0,0.7,0.7*3A::$GPGGA,165211,3904.962802,N,07729.757600,W,2,10,0.7,99.0,M,-42.0,M,,*4F::$GPGSV,3,3,22,24,55,073,25,27,06,274,21,32,35,261,27*4A::$GPVTG,,T,,M,0.0,N,0.0,K,D*26::$GLGSV,3,3,22,70,00,000,,80,02,019,,88,22,313,*51",440011,2017-01-15 16:02:20:739
9.6283,-1.5437,0.7608,9.657,-1.5199,0.776,-0.0287,-0.0237,-0.0152,0.0478,-0.038,0.0639,0,-16.51,-49.73,29.43,149.63,8.92,-85.4,3.1,1016.63,65.4,42.4,54.727,39.08271,-77.49596,183.87,313.8125917,,0,29.032257,,16 / 22,"$GPRMC,,V,,,,,,,,,,N*53::$GPGSA,A,1,,,,,,,,,,,,,,,*1E::$GPGGA,165221,3904.962789,N,07729.757616,W,2,10,0.9,99.0,M,-42.0,M,,*49::$GPGSV,3,3,22,27,06,274,15,32,35,261,28,20,20,115,*42::$GPVTG,,T,,M,,N,,K,N*2C::$GLGSV,3,3,22,80,02,019,,75,05,175,,88,22,313,*52",450008,2017-01-15 16:02:30:738
9.2829,-3.4901,0.8194,9.2225,-3.2522,0.7337,0.0604,-0.2379,0.0857,0.0497,-0.0286,0.0651,0,-17.01,-48.9,26.53,151.09,19.24,-85.49,3.1,1016.68,65.3,42.4,58.44,39.08271,-77.49596,183.87,314.1736363,,0.9,29.032257,311,16 / 22,"$GPRMC,165230,A,3904.962841,N,07729.757680,W,0.5,311.0,150117,0.0,E,D*04::$GPGSA,A,3,10,12,14,15,18,20,21,24,27,32,,,1.1,0.8,0.8*3B::$GPGGA,165230,3904.962841,N,07729.757680,W,2,10,0.8,99.0,M,-42.0,M,,*4C::$GPGSV,3,3,22,24,55,073,28,27,06,274,17,32,35,261,28*4D::$GPVTG,311.0,T,311.0,M,0.5,N,0.9,K,D*2A::$GLGSV,3,3,22,80,02,019,,75,05,175,,88,22,313,*52",460007,2017-01-15 16:02:40:738
9.2847,-2.657,0.5549,9.4492,-2.6071,0.2948,-0.1644,-0.0499,0.26,0.0466,-0.0573,0.0685,0,-14.12,-26.39,34.34,129.63,15.42,-88.21,3.1,1016.51,65.3,42.5,67.93,39.082684,-77.49671,180.65,314.1736363,,45,9.677419,229.9,16 / 22,"$GPRMC,165241,A,3904.961117,N,07729.802664,W,24.3,229.9,150117,0.0,E,D*3D::$GPGSA,A,3,10,12,14,15,18,20,21,24,27,32,,,1.0,0.7,0.7*3A::$GPGGA,165241,3904.961117,N,07729.802664,W,2,10,0.7,98.0,M,-42.0,M,,*48::$GPGSV,3,3,22,27,06,274,22,32,35,261,33,08,02,310,*41::$GPVTG,229.9,T,229.9,M,24.3,N,45.0,K,D*22::$GLGSV,3,3,22,72,53,340,19,70,00,000,,80,02,019,*5C",470008,2017-01-15 16:02:50:739
10.3974,-1.1025,0.896,9.706,-1.015,0.9667,0.6915,-0.0875,-0.0706,0.071,-0.0429,0.0838,0,-14.69,-26.46,33.2,128.26,5.94,-84.31,3.1,1016.4,65.3,42.2,66.527,39.081818,-77.49801,183.87,314.1736363,,61.2,9.677419,229.3,16 / 21,"$GPRMC,,V,,,,,,,,,,N*53::$GPGSA,A,1,,,,,,,,,,,,,,,*1E::$GPGGA,,,,,,0,,,,,,,,*66::$GPGSV,3,3,21,27,06,274,22,32,35,262,34,08,01,309,*4D::$GPVTG,,T,,M,,N,,K,N*2C::$GLGSV,3,3,21,72,54,343,19,80,02,019,*6C",480007,2017-01-15 16:03:00:738
9.8533,1.8794,0.917,9.6348,1.67,0.7435,0.2186,0.2094,0.1735,0.0356,-0.042,0.0486,0,-13.11,-21.48,29.56,121.41,-9.81,-85.59,3.1,1017.17,65.5,42.3,65.655,39.08067,-77.49913,167.74,313.5867137,,30.6,12.903226,206.9,16 / 21,"$GPRMC,165301,A,3904.839997,N,07729.947679,W,16.5,206.9,150117,0.0,E,D*32::$GPGSA,A,3,10,12,14,15,18,20,21,24,27,32,,,1.0,0.7,0.7*3A::$GPGGA,165301,3904.839997,N,07729.947679,W,2,10,0.7,94.0,M,-42.0,M,,*41::$GPGSV,3,3,21,27,06,274,20,32,35,262,23,08,01,309,*49::$GPVTG,206.9,T,206.9,M,16.5,N,30.6,K,D*21::$GLGSV,3,3,21,72,54,343,26,80,02,019,*60",490015,2017-01-15 16:03:10:738
9.6558,-1.1911,0.6853,9.6851,-1.3806,0.6805,-0.0293,0.1895,0.0048,0.0423,-0.0362,0.0657,0,-13.56,-23.26,31.19,127.44,8.09,-85.98,3.1,1017.15,65.6,42.2,52.464,39.080566,-77.499176,177.42,313.5867137,,0,9.677419,,16 / 21,"$GPRMC,165310,A,3904.833930,N,07729.950762,W,0.0,,150117,0.0,E,D*29::$GPGSA,A,3,10,12,14,15,18,20,21,24,27,32,,,1.0,0.7,0.7*3A::$GPGGA,165310,3904.833930,N,07729.950762,W,2,10,0.7,97.0,M,-42.0,M,,*48::$GPGSV,3,3,21,24,55,071,22,27,06,274,22,32,35,262,23*48::$GPVTG,,T,,M,0.0,N,0.0,K,D*26::$GLGSV,3,3,21,72,54,343,14,80,02,019,*61",500007,2017-01-15 16:03:20:739
9.6636,-1.1791,0.6764,9.7121,-1.1725,0.6859,-0.0485,-0.0066,-0.0096,0.0454,-0.0405,0.0654,0,-12.09,-21.13,30.24,125.6,6.86,-85.96,3.1,1017.17,65.6,42.4,49.52,39.080563,-77.49919,180.65,299.0733676,,0,9.677419,,16 / 21,"$GPRMC,165321,A,3904.833824,N,07729.951443,W,0.0,,150117,0.0,E,D*2E::$GPGSA,A,3,10,12,14,15,18,20,21,24,27,32,,,1.0,0.7,0.7*3A::$GPGGA,165321,3904.833824,N,07729.951443,W,2,10,0.7,98.0,M,-42.0,M,,*40::$GPGSV,3,3,21,24,55,071,17,27,06,274,16,32,35,262,22*48::$GPVTG,,T,,M,0.0,N,0.0,K,D*26::$GLGSV,3,3,21,72,54,343,21,80,02,019,*67",510007,2017-01-15 16:03:30:739
8.2426,-2.9227,3.2178,9.0599,-3.3792,1.6337,-0.8138,0.4631,1.5784,-0.3605,0.0026,0.0731,0,-15.41,-28.99,35.85,128.35,20.07,-79.84,3.1,1017.22,65.6,42.4,66.652,39.08051,-77.49923,183.87,299.0733676,,7.2,12.903226,220.6,16 / 21,"$GPRMC,165330,A,3904.830544,N,07729.954092,W,3.9,220.6,150117,0.0,E,D*09::$GPGSA,A,3,10,12,14,15,18,20,21,24,27,32,,,1.0,0.7,0.7*3A::$GPGGA,165330,3904.830544,N,07729.954092,W,2,10,0.7,99.0,M,-42.0,M,,*44::$GPGSV,3,3,21,24,55,071,21,27,06,274,27,32,35,262,26*4B::$GPVTG,220.6,T,220.6,M,3.9,N,7.2,K,D*29::$GLGSV,3,3,21,72,54,343,17,80,02,019,*62",520007,2017-01-15 16:03:40:740
9.1692,-1.9184,0.1939,9.6275,-1.822,0.4016,-0.6479,-0.155,0.3632,0.0564,-0.0487,0.0572,0,-16.64,-46.12,33.94,144.2,10.71,-87.61,3.1,1017.09,65.7,42.2,71.166,39.081017,-77.50061,174.19,298.2749594,,79.2,29.032257,302.3,16 / 21,"$GPRMC,165340,A,3904.861025,N,07730.036239,W,42.8,302.3,150117,0.0,E,D*3E::$GPGSA,A,1,,,,,,,,,,,,,,,*1E::$GPGGA,165340,3904.861025,N,07730.036239,W,2,10,0.7,96.0,M,-42.0,M,,*4C::$GPGSV,3,3,21,24,55,071,29,27,06,274,20,32,35,262,26*44::$GPVTG,,T,,M,,N,,K,N*2C::$GLGSV,3,3,21,72,54,343,19,80,02,019,*6C",530007,2017-01-15 16:03:50:739
9.5319,-1.1049,0.5483,9.7118,-1.1877,0.6633,-0.1799,0.0827,-0.115,0.0472,-0.0576,0.0548,0,-17.17,-45.68,33.57,143.51,6.97,-86.07,3.1,1017.8,65.8,42.2,70.199,39.08225,-77.503105,145.16,298.2749594,,96.3,29.032257,302.1,16 / 21,"$GPRMC,165350,A,3904.935002,N,07730.186384,W,52.0,302.1,150117,0.0,E,D*3C::$GPGSA,A,3,10,12,14,15,18,20,21,24,27,32,,,1.0,0.7,0.7*3A::$GPGGA,165350,3904.935002,N,07730.186384,W,2,10,0.7,87.0,M,-42.0,M,,*45::$GPGSV,3,3,21,24,55,071,30,27,06,274,18,32,35,262,18*4A::$GPVTG,302.1,T,302.1,M,52.0,N,96.3,K,D*2D::$GLGSV,3,3,21,72,54,343,12,80,02,019,*67",540007,2017-01-15 16:04:00:739
9.2494,-1.2923,0.5698,9.6955,-1.1941,0.8615,-0.4461,-0.0981,-0.2916,0.0445,-0.0429,0.07,0,-17,-45.57,32.77,144.03,6.99,-84.92,3.1,1018.15,65.8,42.2,71.383,39.083546,-77.50577,145.16,267.9190801,,99,29.032257,302.1,16 / 21,"$GPRMC,,V,,,,,,,,,,N*53::$GPGSA,A,1,,,,,,,,,,,,,,,*1E::$GPGGA,,,,,,0,,,,,,,,*66::$GPGSV,3,3,21,24,55,071,32,27,06,274,23,32,35,262,19*41::$GPVTG,,T,,M,,N,,K,N*2C::$GLGSV,3,3,21,72,54,343,22,80,02,019,*64",550008,2017-01-15 16:04:10:738
9.5864,-0.9852,1.075,9.7161,-1.0577,0.806,-0.1297,0.0725,0.269,0.0472,-8.00E-04,0.0838,0,-17.05,-46.27,33.12,144.04,6.19,-85.26,3.1,1018.69,65.9,42,71.808,39.084873,-77.50846,135.48,267.9190801,,100.8,29.032257,302.1,16 / 21,"$GPRMC,165410,A,3905.092365,N,07730.508055,W,54.4,302.1,150117,0.0,E,D*37::$GPGSA,A,3,10,12,14,15,18,20,21,24,27,32,,,1.0,0.7,0.7*3A::$GPGGA,165410,3905.092365,N,07730.508055,W,2,10,0.7,84.0,M,-42.0,M,,*4F::$GPGSV,3,3,21,24,55,071,29,27,06,274,17,32,35,262,18*4D::$GPVTG,302.1,T,302.1,M,54.4,N,100.8,K,D*1A::$GLGSV,3,3,21,72,54,343,19,80,02,019,*6C",560008,2017-01-15 16:04:20:739
11.3365,-1.8148,0.4615,9.6841,-1.361,0.7317,0.4769,-0.033,-0.6473,0.0677,0.0133,0.0734,0,-42.08,-38.89,55.67,129.36,7.99,-85.75,3.1,1019.36,66,42,71.072,39.08621,-77.51118,109.68,237.5894334,,98.1,29.032257,301.5,16 / 21,"$GPRMC,165421,A,3905.180128,N,07730.686995,W,53.5,300.8,150117,0.0,E,D*31::$GPGSA,A,3,10,12,14,15,18,20,21,24,27,32,,,1.0,0.7,0.7*3A::$GPGGA,165421,3905.180128,N,07730.686995,W,2,10,0.7,77.0,M,-42.0,M,,*48::$GPGSV,3,3,21,24,55,071,30,27,06,274,20,32,35,262,27*4D::$GPVTG,300.8,T,300.8,M,53.5,N,99.0,K,D*25::$GLGSV,3,3,21,72,54,343,23,80,02,019,*65",570007,2017-01-15 16:04:30:738
9.5906,-1.6765,0.1993,9.6148,-1.8928,0.3793,-0.0242,0.2163,-0.1799,0.0527,-0.0215,0.0523,0,-16.15,-44.06,33.8,143.05,11.13,-87.74,3.1,1018.92,66.2,41.9,70.756,39.087475,-77.51403,119.35,237.5894334,,108,29.032257,300.6,16 / 21,"$GPRMC,165430,A,3905.248573,N,07730.841835,W,58.3,300.6,150117,0.0,E,D*31::$GPGSA,A,3,10,12,14,15,18,20,21,24,27,32,,,1.0,0.7,0.7*3A::$GPGGA,165430,3905.248573,N,07730.841835,W,2,10,0.7,79.0,M,-42.0,M,,*45::$GPGSV,3,3,21,24,54,070,30,27,05,272,17,32,36,262,26*4E::$GPVTG,300.6,T,300.6,M,58.3,N,108.0,K,D*11::$GLGSV,3,3,21,72,54,343,23,80,02,019,*65",580008,2017-01-15 16:04:40:741
9.9317,-1.3874,0.1353,9.6806,-1.3986,0.7075,0.2512,0.0112,-0.5723,0.0539,-0.064,0.0596,0,-16.09,-43.62,33.18,143.14,8.18,-85.75,3.1,1018.46,66.2,41.7,67.766,39.088745,-77.51698,132.26,239.6375804,,100.8,29.032257,298.8,16 / 21,"$GPRMC,165440,A,3905.324684,N,07731.018844,W,54.4,298.8,150117,0.0,E,D*30::$GPGSA,A,3,10,12,14,15,18,20,21,24,27,32,,,1.0,0.7,0.7*3A::$GPGGA,165440,3905.324684,N,07731.018844,W,2,10,0.7,83.0,M,-42.0,M,,*44::$GPGSV,3,3,21,27,05,272,21,32,36,262,25,08,01,309,*48::$GPVTG,298.8,T,298.8,M,54.4,N,100.8,K,D*1A::$GLGSV,3,3,21,72,54,343,27,80,02,019,*61",590007,2017-01-15 16:04:50:738
8.8831,-1.1971,0.6782,9.6918,-1.2876,0.7631,-0.8087,0.0905,-0.0849,0.0442,-0.0585,0.067,0,-16.68,-43.3,33.66,141.63,7.54,-85.5,3.1,1017.44,66.3,41.6,68.616,39.08992,-77.51971,154.84,239.6375804,,95.4,29.032257,298.8,16 / 21,"$GPRMC,165450,A,3905.395088,N,07731.182394,W,51.5,298.8,150117,0.0,E,D*31::$GPGSA,A,1,,,,,,,,,,,,,,,*1E::$GPGGA,165450,3905.395088,N,07731.182394,W,2,10,0.7,90.0,M,-42.0,M,,*43::$GPGSV,3,3,21,27,05,272,14,32,36,262,23,08,01,309,*48::$GPVTG,298.8,T,298.8,M,51.5,N,95.4,K,D*2F::$GLGSV,3,3,21,72,54,344,28,80,01,018,*6B",600007,2017-01-15 16:05:00:739
9.6798,-1.5993,1.2773,9.6202,-1.6289,0.9848,0.0596,0.0296,0.2925,0.0338,-0.035,0.0633,0,-16.83,-45.52,33.47,144.02,9.57,-84.14,3.1,1017.06,66.6,41.5,70.055,39.091076,-77.5224,164.52,286.2764847,,97.2,29.032257,299.1,16 / 21,"$GPRMC,165501,A,3905.471888,N,07731.360915,W,53.0,299.7,150117,0.0,E,D*35::$GPGSA,A,3,10,12,14,15,18,20,21,24,27,32,,,1.0,0.7,0.7*3A::$GPGGA,165501,3905.471888,N,07731.360915,W,2,10,0.7,93.0,M,-42.0,M,,*4D::$GPGSV,3,3,21,27,05,272,21,32,36,262,26,08,01,309,*4B::$GPVTG,299.7,T,299.7,M,53.0,N,98.1,K,D*20::$GLGSV,3,3,21,72,54,344,20,80,01,018,*63",610011,2017-01-15 16:05:10:739
9.7133,-1.1007,1.4018,9.681,-1.1068,1.1066,0.0323,0.0061,0.2952,0.0246,-0.0423,0.0734,0,-16.41,-47.1,31.38,145.86,6.47,-83.48,3.1,1017.68,66.6,41.3,68.741,39.092663,-77.52524,148.39,286.2764847,,98.1,9.677419,310.9,16 / 21,"$GPRMC,165511,A,3905.559766,N,07731.514312,W,53.0,310.9,150117,0.0,E,D*36::$GPGSA,A,3,10,12,14,15,18,20,21,24,27,32,,,1.0,0.7,0.7*3A::$GPGGA,165511,3905.559766,N,07731.514312,W,2,10,0.7,88.0,M,-42.0,M,,*4A::$GPGSV,3,3,21,24,54,070,24,27,05,272,18,32,36,262,28*4A::$GPVTG,310.9,T,310.9,M,53.0,N,98.1,K,D*20::$GLGSV,3,3,21,72,54,344,26,80,01,018,*65",620007,2017-01-15 16:05:20:738
9.6726,-1.4425,0.7602,9.6935,-1.2603,0.7863,-0.0209,-0.1822,-0.0261,0.0561,-0.0402,0.0694,0,-17.84,-46.95,26.87,149.74,7.36,-85.35,3.1,1017.11,66.6,41.2,67.335,39.09422,-77.52711,164.52,275.4711297,,92.7,12.903226,318.5,16 / 21,"$GPRMC,165520,A,3905.653154,N,07731.626508,W,50.1,318.5,150117,0.0,E,D*33::$GPGSA,A,3,10,12,14,15,18,20,21,24,27,32,,,1.0,0.7,0.7*3A::$GPGGA,165520,3905.653154,N,07731.626508,W,2,10,0.7,93.0,M,-42.0,M,,*43::$GPGSV,3,3,21,24,54,070,23,27,05,272,20,32,36,262,33*4C::$GPVTG,318.5,T,318.5,M,50.1,N,92.7,K,D*2E::$GLGSV,3,3,21,72,54,344,30,80,01,018,*62",630007,2017-01-15 16:05:30:738
9.0944,-0.4196,0.662,9.7789,-0.5973,0.4324,-0.6845,0.1778,0.2296,0.0414,-0.0594,0.0477,0,-16.42,-45.92,32.2,145.09,3.54,-87.48,3.1,1016.79,66.8,41.1,66.646,39.09572,-77.52918,180.65,275.4711297,,81.9,12.903226,308.9,16 / 21,"$GPRMC,165530,A,3905.743291,N,07731.751024,W,44.2,308.9,150117,0.0,E,D*39::$GPGSA,A,3,10,12,14,15,18,20,21,24,27,32,,,1.0,0.7,0.7*3A::$GPGGA,165530,3905.743291,N,07731.751024,W,2,10,0.7,98.0,M,-42.0,M,,*49::$GPGSV,3,1,21,08,01,309,20,10,54,316,32,12,07,119,21,14,14,251,30*77::$GPVTG,308.9,T,308.9,M,44.2,N,81.9,K,D*24::$GLGSV,3,3,21,72,54,344,20,80,01,018,*63",640008,2017-01-15 16:05:40:738
9.9713,0.7763,0.3077,9.785,0.3636,0.5406,0.1863,0.4128,-0.2329,0.0417,-0.0325,0.0508,0,-15.49,-46.55,31.99,144.81,-2.12,-86.84,3.1,1017.26,66.7,41.2,66.6,39.096645,-77.5307,174.19,294.1251996,,37.8,9.677419,307.4,16 / 21,"$GPRMC,,V,,,,,,,,,,N*53::$GPGSA,A,1,,,,,,,,,,,,,,,*1E::$GPGGA,,,,,,0,,,,,,,,*66::$GPGSV,3,2,21,15,22,063,21,18,80,036,31,20,19,116,21,21,41,194,31*78::$GPVTG,,T,,M,,N,,K,N*2C::$GLGSV,3,3,21,72,54,344,20,80,01,018,*63",650007,2017-01-15 16:05:50:739
9.669,-1.1223,0.5626,9.6943,-1.3702,0.5601,-0.0253,0.2479,0.0025,0.0469,-0.0448,0.0621,0,-15.46,-47.21,33.63,144.25,8.03,-86.69,3.1,1017.35,66.8,41,55.673,39.09681,-77.53096,164.52,294.1251996,,0,9.677419,,16 / 21,"$GPRMC,165551,A,3905.808620,N,07731.857736,W,0.0,,150117,0.0,E,D*23::$GPGSA,A,3,10,12,14,15,18,20,21,24,27,32,,,1.0,0.7,0.7*3A::$GPGGA,165551,3905.808620,N,07731.857736,W,2,10,0.7,93.0,M,-42.0,M,,*46::$GPGSV,3,3,21,24,54,070,31,27,05,272,16,32,36,262,28*40::$GPVTG,,T,,M,0.0,N,0.0,K,D*26::$GLGSV,3,3,21,80,01,018,,88,23,310,*65",660007,2017-01-15 16:06:00:738
9.6672,-1.1355,0.5483,9.7233,-1.1493,0.5536,-0.0561,0.0138,-0.0053,0.0426,-0.035,0.0618,0,-14.84,-47.17,33.93,144.18,6.73,-86.74,3.1,1017.37,67,40.8,62.974,39.09681,-77.53095,164.52,290.186174,,0,9.677419,,16 / 21,"$GPRMC,165601,A,3905.808550,N,07731.857055,W,0.0,,150117,0.0,E,D*23::$GPGSA,A,3,10,12,14,15,18,20,21,24,27,32,,,1.0,0.8,0.7*35::$GPGGA,165601,3905.808550,N,07731.857055,W,2,10,0.8,93.0,M,-42.0,M,,*49::$GPGSV,3,3,21,24,54,070,31,27,05,272,14,32,36,262,30*4B::$GPVTG,,T,,M,0.0,N,0.0,K,D*26::$GLGSV,3,3,21,80,01,018,,88,23,310,*65",670007,2017-01-15 16:06:10:738
9.6708,-1.1384,0.5686,9.7232,-1.1462,0.5628,-0.0524,0.0078,0.0059,0.0423,-0.0335,0.0621,0,-15.77,-49.11,33.68,145.27,6.71,-86.69,3.1,1017.38,67,40.8,54.647,39.096813,-77.53096,161.29,290.186174,,0,9.677419,,16 / 21,"$GPRMC,165611,A,3905.808698,N,07731.857723,W,0.0,,150117,0.0,E,D*23::$GPGSA,A,3,10,12,14,15,18,20,21,24,27,32,,,1.0,0.8,0.7*35::$GPGGA,165611,3905.808698,N,07731.857723,W,2,10,0.8,92.0,M,-42.0,M,,*48::$GPGSV,3,3,21,24,54,068,33,27,05,272,14,32,36,264,27*40::$GPVTG,,T,,M,0.0,N,0.0,K,D*26::$GLGSV,3,3,21,72,54,344,13,80,01,018,*63",680008,2017-01-15 16:06:20:738
9.6385,-1.1444,0.5351,9.7235,-1.1428,0.5634,-0.0851,-0.0016,-0.0283,0.0435,-0.0426,0.0621,0,-16.24,-49.12,33.37,146.05,6.69,-86.68,3.1,1017.39,67.1,40.8,67.612,39.09681,-77.53096,161.29,290.186174,,0,9.677419,,16 / 21,"$GPRMC,165621,A,3905.808360,N,07731.857478,W,0.0,,150117,0.0,E,D*2F::$GPGSA,A,3,10,12,14,15,18,20,21,24,27,32,,,1.0,0.8,0.7*35::$GPGGA,165621,3905.808360,N,07731.857478,W,2,10,0.8,92.0,M,-42.0,M,,*44::$GPGSV,3,3,21,24,54,068,34,27,05,272,12,32,36,264,28*4E::$GPVTG,,T,,M,0.0,N,0.0,K,D*26::$GLGSV,3,3,21,72,54,344,14,80,01,018,*64",690007,2017-01-15 16:06:30:738
9.6612,-1.151,0.5644,9.7232,-1.1452,0.5635,-0.062,-0.0058,9.00E-04,0.0408,-0.0344,0.063,0,-15.87,-49.16,33.46,146.05,6.71,-86.69,3.1,1017.45,67.1,40.7,58.134,39.09681,-77.53096,161.29,290.186174,,0,9.677419,,16 / 21,"$GPRMC,165630,A,3905.808373,N,07731.857461,W,0.0,,150117,0.0,E,D*25::$GPGSA,A,3,10,12,14,15,18,20,21,24,27,32,,,1.0,0.8,0.7*35::$GPGGA,165630,3905.808373,N,07731.857461,W,2,10,0.8,92.0,M,-42.0,M,,*4E::$GPGSV,3,3,21,24,54,068,34,27,05,272,17,32,36,264,27*44::$GPVTG,,T,,M,0.0,N,0.0,K,D*26::$GLGSV,3,3,21,80,01,018,,88,23,310,*65",700007,2017-01-15 16:06:40:738
9.6582,-1.145,0.568,9.724,-1.1399,0.5604,-0.0658,-0.0051,0.0076,0.0451,-0.0377,0.0581,0,-15.73,-49.32,33.44,146.05,6.68,-86.7,3.1,1017.44,67.2,40.7,58.268,39.09681,-77.53096,161.29,290.186174,,0,9.677419,,16 / 21,"$GPRMC,165640,A,3905.808360,N,07731.857459,W,0.0,,150117,0.0,E,D*2B::$GPGSA,A,3,10,12,14,15,18,20,21,24,27,32,,,1.0,0.8,0.7*35::$GPGGA,165640,3905.808360,N,07731.857459,W,2,10,0.8,92.0,M,-42.0,M,,*40::$GPGSV,3,3,21,24,54,068,33,27,05,272,17,32,36,264,29*4D::$GPVTG,,T,,M,0.0,N,0.0,K,D*26::$GLGSV,3,1,21,74,45,135,24,86,04,206,13,73,35,049,28,75,07,175,18*61",710007,2017-01-15 16:06:50:738
9.6438,-1.1283,0.5704,9.7228,-1.1478,0.566,-0.0789,0.0195,0.0044,0.0484,-0.0368,0.0645,0,-15.03,-48.66,33.26,146.03,6.72,-86.66,3.1,1017.42,67.1,41,54.58,39.09681,-77.53096,161.29,290.186174,,0,9.677419,,16 / 21,"$GPRMC,165651,A,3905.808354,N,07731.857460,W,0.0,,150117,0.0,E,D*26::$GPGSA,A,3,10,12,14,15,18,20,21,24,27,32,,,1.0,0.8,0.7*35::$GPGGA,165651,3905.808354,N,07731.857460,W,2,10,0.8,92.0,M,-42.0,M,,*4D::$GPGSV,3,3,21,24,54,068,33,27,05,272,17,32,36,264,29*4D::$GPVTG,,T,,M,0.0,N,0.0,K,D*26::$GLGSV,3,3,21,80,00,000,,88,23,309,*65",720007,2017-01-15 16:07:00:739
9.754,-2.6187,0.4639,9.3734,-2.8352,0.5205,0.3805,0.2165,-0.0566,0.0426,-0.0448,0.0633,0,-15.58,-47.41,32.97,145.42,16.82,-86.81,3.1,1017.43,67.2,40.7,66.721,39.09718,-77.53161,158.06,289.9186448,,54.9,9.677419,307.1,16 / 21,"$GPRMC,165701,A,3905.830741,N,07731.896362,W,29.6,307.1,150117,0.0,E,D*37::$GPGSA,A,3,10,12,14,15,18,20,21,24,27,32,,,1.0,0.8,0.7*35::$GPGGA,165701,3905.830741,N,07731.896362,W,2,10,0.8,91.0,M,-42.0,M,,*49::$GPGSV,3,3,21,24,54,068,30,27,05,272,15,32,36,264,28*4D::$GPVTG,307.1,T,307.1,M,29.6,N,54.9,K,D*23::$GLGSV,3,3,21,80,00,000,,88,23,309,*65",730007,2017-01-15 16:07:10:739
10.0179,-1.0271,0.9044,9.7215,-1.0099,0.8023,0.2965,-0.0172,0.1021,0.0432,-0.0359,0.0642,0,-16.54,-46.1,31.3,145.64,5.91,-85.28,3.1,1017.79,67.3,40.6,67.114,39.09827,-77.53342,148.39,289.9186448,,77.4,9.677419,307.3,16 / 21,"$GPRMC,165711,A,3905.896177,N,07732.005087,W,41.8,307.3,150117,0.0,E,D*32::$GPGSA,A,3,10,12,14,15,18,20,21,24,27,32,,,1.0,0.8,0.7*35::$GPGGA,165711,3905.896177,N,07732.005087,W,2,10,0.8,88.0,M,-42.0,M,,*46::$GPGSV,3,3,21,24,54,068,28,27,05,272,11,32,36,264,30*49::$GPVTG,307.3,T,307.3,M,41.8,N,77.4,K,D*2F::$GLGSV,3,3,21,80,00,000,,88,23,309,*65",740007,2017-01-15 16:07:20:739
9.4745,-0.9122,0.756,9.7668,-0.473,0.7453,-0.2924,-0.4392,0.0106,0.0316,-0.053,0.0621,0,-16.69,-46.9,32.12,145.13,2.76,-85.64,3.1,1017.95,67.3,40.5,66.783,39.099495,-77.53551,141.94,272.3252307,,79.2,9.677419,307,16 / 21,"$GPRMC,165721,A,3905.969679,N,07732.130121,W,42.8,307.0,150117,0.0,E,D*33::$GPGSA,A,3,10,12,14,15,18,20,21,24,27,32,,,1.1,0.8,0.8*3B::$GPGGA,165721,3905.969679,N,07732.130121,W,2,10,0.8,86.0,M,-42.0,M,,*49::$GPGSV,3,3,21,24,54,068,26,32,36,264,29,27,05,272,*4F::$GPVTG,307.0,T,307.0,M,42.8,N,79.2,K,D*24::$GLGSV,3,3,21,80,00,000,,88,23,309,*65",750007,2017-01-15 16:07:30:739
10.1909,-1.1582,0.5836,9.7208,-1.1303,0.6308,0.4701,-0.0278,-0.0472,0.046,-0.0576,0.081,0,-15.25,-44.88,31.97,144.53,6.62,-86.29,3.1,1017.6,67.5,40.2,67.567,39.10072,-77.537544,151.61,272.3252307,,82.8,9.677419,307.3,16 / 21,"$GPRMC,165731,A,3906.043119,N,07732.252623,W,44.7,307.3,150117,0.0,E,D*39::$GPGSA,A,3,10,12,14,15,18,20,21,24,27,32,,,1.0,0.8,0.7*35::$GPGGA,165731,3906.043119,N,07732.252623,W,2,10,0.8,89.0,M,-42.0,M,,*46::$GPGSV,3,3,21,24,54,068,24,27,05,272,14,32,36,264,29*48::$GPVTG,307.3,T,307.3,M,44.7,N,82.8,K,D*23::$GLGSV,3,3,21,72,54,345,12,80,00,000,*6B",760008,2017-01-15 16:07:40:739
9.6289,-1.7609,0.7859,9.6725,-1.4677,0.6772,-0.0436,-0.2933,0.1087,0.0341,-0.0469,0.0624,0,-17.16,-44.7,32.12,144.66,8.61,-86,3.1,1017.13,67.5,40.2,67.87,39.101776,-77.53937,174.19,285.7491356,,76.5,9.677419,306.9,16 / 21,"$GPRMC,165740,A,3906.106548,N,07732.361954,W,41.3,306.9,150117,0.0,E,D*3B::$GPGSA,A,3,10,12,14,15,18,20,21,24,27,32,,,1.0,0.8,0.7*35::$GPGGA,165740,3906.106548,N,07732.361954,W,2,10,0.8,96.0,M,-42.0,M,,*40::$GPGSV,3,3,21,24,54,068,24,27,05,272,14,32,36,264,29*48::$GPVTG,306.9,T,306.9,M,41.3,N,76.5,K,D*24::$GLGSV,3,3,21,72,54,345,12,80,00,000,*6B",770007,2017-01-15 16:07:50:738
9.0351,-1.9052,2.0321,9.557,-1.6278,1.4777,-0.5219,-0.2774,0.5543,-0.0298,-0.057,0.0636,0,-16.59,-45.38,31.05,144.38,9.55,-81.21,3.1,1016.3,67.6,40.1,66.187,39.103,-77.5414,200,285.7491356,,69.3,29.032257,309.5,16 / 21,"$GPRMC,165751,A,3906.179998,N,07732.484205,W,37.4,309.5,150117,0.0,E,D*34::$GPGSA,A,3,10,12,14,15,18,20,21,24,27,32,,,1.0,0.8,0.7*35::$GPGGA,165751,3906.179998,N,07732.484205,W,2,10,0.8,104.0,M,-42.0,M,,*70::$GPGSV,3,3,21,24,53,067,24,27,05,272,18,32,37,264,29*4D::$GPVTG,309.5,T,309.5,M,37.4,N,69.3,K,D*2A::$GLGSV,3,3,21,72,54,345,14,80,00,000,*6D",780007,2017-01-15 16:08:00:739
9.1004,-1.5957,0.9284,9.5769,-1.7902,1.1175,-0.4765,0.1944,-0.1891,0.0445,-0.0105,0.0486,0,-18.65,-49.94,17.07,159.93,10.54,-83.34,3.1,1015.62,67.6,39.8,67.29,39.10457,-77.54218,216.13,328.5937177,,75.6,32.258064,358.9,16 / 21,"$GPRMC,165801,A,3906.273979,N,07732.531149,W,40.8,358.9,150117,0.0,E,D*38::$GPGSA,A,3,10,12,14,15,18,20,21,24,27,32,,,1.0,0.8,0.7*35::$GPGGA,165801,3906.273979,N,07732.531149,W,2,10,0.8,109.0,M,-42.0,M,,*75::$GPGSV,3,3,21,24,53,067,24,27,05,272,27,32,37,264,28*40::$GPVTG,358.9,T,358.9,M,40.8,N,75.6,K,D*2E::$GLGSV,3,3,21,72,54,345,21,80,00,000,*6B",790008,2017-01-15 16:08:10:738
9.2656,-1.3533,3.0167,9.1816,-1.6879,3.0032,0.084,0.3346,0.0134,-0.0786,-0.0768,0.0459,0,-16.68,-45.2,6.34,166.78,9.94,-71.87,3.1,1015.23,67.6,39.7,66.483,39.10616,-77.54194,229.03,328.5937177,,72,29.032257,24.9,16 / 21,"$GPRMC,165810,A,3906.369547,N,07732.516063,W,38.9,24.9,150117,0.0,E,D*09::$GPGSA,A,3,10,12,14,15,18,20,21,24,27,32,,,1.0,0.8,0.7*35::$GPGGA,165810,3906.369547,N,07732.516063,W,2,10,0.8,113.0,M,-42.0,M,,*79::$GPGSV,3,3,21,27,05,272,25,32,37,264,26,08,01,307,*46::$GPVTG,24.9,T,24.9,M,38.9,N,72.0,K,D*21::$GLGSV,3,3,21,72,54,345,27,80,00,000,*6D",800007,2017-01-15 16:08:20:739
9.3847,-2.1045,0.8475,9.5429,-2.1504,0.6923,-0.1582,0.0459,0.1552,0.0661,-0.0432,0.0642,0,-15.06,-44.75,1.72,177.46,12.68,-85.82,3.1,1014.45,67.7,39.6,67.974,39.10752,-77.54035,232.26,352.494323,,79.2,9.677419,43.5,16 / 21,"$GPRMC,165820,A,3906.451324,N,07732.421355,W,42.8,43.5,150117,0.0,E,D*07::$GPGSA,A,3,10,12,14,15,18,20,21,24,27,32,,,1.0,0.8,0.7*35::$GPGGA,165820,3906.451324,N,07732.421355,W,2,10,0.8,114.0,M,-42.0,M,,*71::$GPGSV,3,1,21,08,01,307,22,10,55,316,34,12,08,118,21,14,15,251,31*72::$GPVTG,43.5,T,43.5,M,42.8,N,79.2,K,D*24::$GLGSV,3,3,21,72,54,345,31,80,00,000,*6A",810007,2017-01-15 16:08:30:739
9.5379,-0.8966,0.516,9.7754,-0.624,0.4717,-0.2375,-0.2726,0.0443,0.0735,-0.0582,0.0544,0,-16.79,-48.62,8.7,168.89,3.65,-87.24,3.1,1014.52,67.9,39.3,66.335,39.109085,-77.538956,245.16,352.494323,,63.9,9.677419,25.2,16 / 21,"$GPRMC,,V,,,,,,,,,,N*53::$GPGSA,A,1,,,,,,,,,,,,,,,*1E::$GPGGA,,,,,,0,,,,,,,,*66::$GPGSV,3,3,21,24,53,067,27,27,05,272,24,32,37,264,28*40::$GPVTG,,T,,M,,N,,K,N*2C::$GLGSV,3,3,21,72,54,345,29,80,00,000,*63",820008,2017-01-15 16:08:40:739
9.7659,-0.0796,1.2121,9.7282,0.4882,1.1378,0.0378,-0.5678,0.0742,0.0463,-0.0377,0.0716,0,-15.86,-49.77,8.04,168.73,-2.91,-83.33,3.1,1014.82,67.9,39.1,62.72,39.110115,-77.53842,245.16,363.8140117,,20.7,9.677419,21.9,16 / 21,"$GPRMC,,V,,,,,,,,,,N*53::$GPGSA,A,1,,,,,,,,,,,,,,,*1E::$GPGGA,,,,,,0,,,,,,,,*66::$GPGSV,3,1,21,08,01,307,14,10,55,316,20,12,08,118,18,14,15,251,28*70::$GPVTG,,T,,M,,N,,K,N*2C::$GLGSV,3,3,21,72,54,345,28,80,00,000,*62",830008,2017-01-15 16:08:50:738
9.6498,-1.2623,1.1803,9.6312,-1.4238,1.1759,0.0186,0.1614,0.0044,0.0442,-0.0371,0.0633,0,-12.73,-45.53,9.21,167.46,8.35,-83.04,3.1,1014.68,67.9,39.2,65.079,39.110172,-77.53838,238.71,363.8140117,,0,9.677419,,16 / 21,"$GPRMC,165850,A,3906.610297,N,07732.303195,W,0.0,,150117,0.0,E,D*25::$GPGSA,A,3,10,12,14,15,18,20,21,24,27,32,,,1.1,0.8,0.8*3B::$GPGGA,165850,3906.610297,N,07732.303195,W,2,10,0.8,116.0,M,-42.0,M,,*73::$GPGSV,3,3,21,24,53,067,30,27,05,272,18,32,37,264,28*49::$GPVTG,,T,,M,0.0,N,0.0,K,D*26::$GLGSV,3,3,21,72,54,345,30,80,00,000,*6B",840007,2017-01-15 16:09:00:740
9.6379,-1.2737,1.1654,9.6484,-1.2924,1.187,-0.0105,0.0187,-0.0216,0.0429,-0.0344,0.0642,0,-12.67,-45.24,9.22,167.16,7.57,-82.99,3.1,1014.73,67.9,38.8,64.016,39.11016,-77.53838,238.71,363.8140117,,0,9.677419,,16 / 21,"$GPRMC,165901,A,3906.609462,N,07732.303279,W,0.0,,150117,0.0,E,D*25::$GPGSA,A,3,10,12,14,15,18,20,21,24,27,32,,,1.0,0.8,0.7*35::$GPGGA,165901,3906.609462,N,07732.303279,W,2,10,0.8,116.0,M,-42.0,M,,*73::$GPGSV,3,3,21,24,53,067,31,27,05,272,15,32,37,264,25*48::$GPVTG,,T,,M,0.0,N,0.0,K,D*26::$GLGSV,3,3,21,72,54,347,31,80,00,000,*68",850007,2017-01-15 16:09:10:739
9.6415,-1.2875,1.166,9.6493,-1.2891,1.1829,-0.0079,0.0016,-0.0169,0.049,-0.0341,0.0624,0,-12.21,-45.62,8.89,167.54,7.56,-83.01,3.1,1014.75,68.1,38.9,52,39.11016,-77.53838,238.71,363.8140117,,0,9.677419,,16 / 21,"$GPRMC,165911,A,3906.609459,N,07732.303267,W,0.0,,150117,0.0,E,D*23::$GPGSA,A,3,10,12,14,15,18,20,21,24,27,32,,,1.0,0.8,0.7*35::$GPGGA,165911,3906.609459,N,07732.303267,W,2,10,0.8,116.0,M,-42.0,M,,*75::$GPGSV,3,3,21,24,53,067,30,27,05,272,14,32,37,264,25*48::$GPVTG,,T,,M,0.0,N,0.0,K,D*26::$GLGSV,3,3,21,72,54,347,30,80,00,000,*69",860007,2017-01-15 16:09:20:745
9.6337,-1.2803,1.1827,9.6498,-1.2859,1.1826,-0.0161,0.0056,1.00E-04,0.0435,-0.0344,0.0609,0,-12.64,-45.58,9.19,167.43,7.53,-83.01,3.1,1014.77,68.3,38.9,58.943,39.11016,-77.53838,238.71,363.8140117,,0,9.677419,,16 / 21,"$GPRMC,165921,A,3906.609463,N,07732.303264,W,0.0,,150117,0.0,E,D*2A::$GPGSA,A,3,10,12,14,15,18,20,21,24,27,32,,,1.0,0.8,0.7*35::$GPGGA,165921,3906.609463,N,07732.303264,W,2,10,0.8,116.0,M,-42.0,M,,*7C::$GPGSV,3,3,21,24,53,067,30,27,05,272,13,32,37,264,28*42::$GPVTG,,T,,M,0.0,N,0.0,K,D*26::$GLGSV,3,3,21,72,54,347,30,80,00,000,*69",870009,2017-01-15 16:09:30:742
9.15,-3.7373,1.2917,8.9762,-3.7846,1.1292,0.1738,0.0472,0.1625,0.0417,-0.0625,0.0508,0,-14.28,-46.09,9.64,166.15,22.7,-82.83,3.1,1014.66,68.2,39,66.391,39.11021,-77.53837,238.71,363.7764153,,15.3,29.032257,20.5,16 / 21,"$GPRMC,,V,,,,,,,,,,N*53::$GPGSA,A,3,10,12,14,15,18,20,21,24,27,32,,,1.0,0.8,0.7*35::$GPGGA,,,,,,0,,,,,,,,*66::$GPGSV,3,3,21,24,53,067,29,27,04,271,21,32,37,265,20*40::$GPVTG,,T,,M,,N,,K,N*2C::$GLGSV,3,3,21,72,54,347,28,80,00,000,*60",880008,2017-01-15 16:09:40:739
9.5433,-2.4541,0.7997,9.5559,-2.1039,0.6543,-0.0126,-0.3501,0.1454,0.0591,-0.0353,0.0673,0,-15.53,-49.88,11.33,166.96,12.39,-86.08,3.1,1014.56,68.2,39,68.691,39.11149,-77.53786,238.71,363.7764153,,72.9,29.032257,12.3,16 / 21,"$GPRMC,,V,,,,,,,,,,N*53::$GPGSA,A,3,10,12,14,15,18,20,21,24,27,32,,,1.0,0.8,0.7*35::$GPGGA,,,,,,0,,,,,,,,*66::$GPGSV,3,3,21,24,53,067,27,27,04,271,23,32,37,265,20*4C::$GPVTG,12.3,T,12.3,M,39.4,N,72.9,K,D*24::$GLGSV,3,3,21,72,54,347,19,80,00,000,*62",890008,2017-01-15 16:09:50:738
9.6085,-2.6624,0.723,9.5208,-2.2882,0.5384,0.0878,-0.3742,0.1847,0.0625,-0.0619,0.0777,0,-13.9,-51.19,13.57,164.6,13.45,-86.73,3.1,1014.98,68.4,38.7,70.202,39.113216,-77.53766,232.26,346.3027991,,77.4,29.032257,0,16 / 21,"$GPRMC,165950,A,3906.793097,N,07732.259435,W,41.8,360.0,150117,0.0,E,D*3B::$GPGSA,A,3,10,12,14,15,18,20,21,24,27,32,,,1.0,0.8,0.7*35::$GPGGA,165950,3906.793097,N,07732.259435,W,2,10,0.8,114.0,M,-42.0,M,,*79::$GPGSV,3,3,21,24,53,067,25,27,04,271,25,32,37,265,32*4B::$GPVTG,360.0,T,360.0,M,41.8,N,77.4,K,D*2F::$GLGSV,3,3,21,72,54,347,32,80,00,000,*6B",900007,2017-01-15 16:10:00:739
9.5385,-1.734,0.486,9.6708,-1.5417,0.5183,-0.1323,-0.1923,-0.0322,0.0784,-0.0499,0.0618,0,-17.09,-50.79,20.24,158.44,9.03,-86.91,3.1,1015.5,68.5,38.5,70.166,39.11535,-77.53808,225.81,346.3027991,,86.4,29.032257,344.9,16 / 21,"$GPRMC,170001,A,3906.933727,N,07732.289953,W,47.6,343.7,150117,0.0,E,D*34::$GPGSA,A,3,10,12,14,15,18,20,21,24,27,32,,,1.0,0.8,0.7*35::$GPGGA,,,,,,0,,,,,,,,*66::$GPGSV,3,3,21,24,53,067,20,27,04,271,25,32,37,265,33*4F::$GPVTG,343.7,T,343.7,M,47.6,N,88.2,K,D*21::$GLGSV,3,3,21,72,54,347,27,80,00,000,*6F",910008,2017-01-15 16:10:10:738
9.9096,-0.9158,0.9529,9.6917,-0.8421,1.2375,0.2179,-0.0737,-0.2846,0.0438,-0.0515,0.0664,0,-16.65,-50.84,20.56,156.17,4.93,-82.72,3.1,1015.91,68.4,38.5,69.126,39.117596,-77.53904,200,317.0407416,,96.3,32.258064,341.2,16 / 21,"$GPRMC,170010,A,3907.055704,N,07732.342484,W,52.0,341.2,150117,0.0,E,D*39::$GPGSA,A,1,,,,,,,,,,,,,,,*1E::$GPGGA,170010,3907.055704,N,07732.342484,W,2,10,0.8,104.0,M,-42.0,M,,*71::$GPGSV,3,3,21,24,53,067,17,27,04,271,18,32,37,265,28*4F::$GPVTG,,T,,M,,N,,K,N*2C::$GLGSV,3,3,21,72,55,348,28,80,00,000,*6E",920007,2017-01-15 16:10:20:742
9.5445,-1.3671,1.1785,9.6708,-1.1573,1.1434,-0.1263,-0.2098,0.0352,0.0408,-0.0258,0.0563,0,-17.03,-50.44,20.88,156.01,6.78,-83.26,3.1,1016.32,68.4,38.4,70.661,39.120056,-77.54006,187.1,317.0407416,,108.9,32.258064,341.7,16 / 21,"$GPRMC,170020,A,3907.203467,N,07732.403799,W,58.8,341.7,150117,0.0,E,D*37::$GPGSA,A,3,10,12,14,15,18,20,21,24,27,32,,,1.0,0.8,0.7*35::$GPGGA,170020,3907.203467,N,07732.403799,W,2,10,0.8,100.0,M,-42.0,M,,*7C::$GPGSV,3,3,21,24,53,067,18,27,04,271,20,32,37,265,26*45::$GPVTG,341.7,T,341.7,M,58.8,N,108.9,K,D*13::$GLGSV,3,3,21,72,55,348,29,80,00,000,*6F",930007,2017-01-15 16:10:30:738
9.6977,-0.9403,1.2151,9.6902,-0.9048,1.2047,0.0075,-0.0356,0.0104,0.0377,-0.0506,0.077,0,-17.17,-50.24,20.47,156.77,5.29,-82.91,3.1,1016.49,68.5,38.1,68.783,39.122837,-77.54127,174.19,317.0407416,,102.6,38.709675,342.1,16 / 21,"$GPRMC,,V,,,,,,,,,,N*53::$GPGSA,A,1,,,,,,,,,,,,,,,*1E::$GPGGA,,,,,,0,,,,,,,,*66::$GPGSV,3,3,21,27,04,271,23,32,37,265,21,08,01,307,*44::$GPVTG,,T,,M,,N,,K,N*2C::$GLGSV,3,3,21,72,55,348,27,80,00,000,*61",940007,2017-01-15 16:10:40:738
9.596,-0.2023,-0.0042,9.7625,-0.6659,0.6478,-0.1666,0.4636,-0.652,0.0585,-0.0264,0.056,0,-16.91,-49.87,22.36,155.63,3.95,-86.18,3.1,1016.47,68.5,38.1,71.143,39.12492,-77.54217,177.42,298.5326264,,94.5,32.258064,342.7,16 / 21,"$GPRMC,,V,,,,,,,,,,N*53::$GPGSA,A,3,10,12,14,15,18,20,21,24,27,32,,,1.1,0.8,0.8*3B::$GPGGA,,,,,,0,,,,,,,,*66::$GPGSV,3,3,21,27,04,271,19,32,38,265,32,08,01,306,,25,00,000,*76::$GPVTG,343.1,T,343.1,M,50.1,N,92.7,K,D*2E::$GLGSV,3,3,21,72,55,348,22*5C",950007,2017-01-15 16:10:50:738
10.012,-1.8034,0.5148,9.7078,-1.2579,0.5891,0.3042,-0.5455,-0.0744,0.0478,-0.0426,0.0774,0,-17.45,-50.06,22.74,155.06,7.37,-86.53,3.1,1016.73,68.4,38,67.887,39.126736,-77.54293,180.65,298.5326264,,63.9,29.032257,341.4,16 / 21,"$GPRMC,170050,A,3907.604024,N,07732.575635,W,34.5,341.4,150117,0.0,E,D*33::$GPGSA,A,3,10,12,14,15,18,20,21,24,27,32,,,1.0,0.8,0.7*35::$GPGGA,170050,3907.604024,N,07732.575635,W,2,10,0.8,98.0,M,-42.0,M,,*4C::$GPGSV,3,1,21,10,56,317,33,12,09,118,14,14,16,253,25,15,20,064,14*78::$GPVTG,341.4,T,341.4,M,34.5,N,63.9,K,D*28::$GLGSV,3,3,21,72,55,348,25*5B",960008,2017-01-15 16:11:00:738
9.5612,-1.7861,0.5034,9.6886,-1.3538,0.6851,-0.1273,-0.4323,-0.1818,0.0481,-0.0426,0.0694,0,-16.62,-50.1,22.42,154.93,7.82,-85.93,3.1,1016.92,68.6,37.8,66.379,39.128273,-77.5436,164.52,304.6130388,,62.1,29.032257,341.9,16 / 21,"$GPRMC,,V,,,,,,,,,,N*53::$GPGSA,A,1,,,,,,,,,,,,,,,*1E::$GPGGA,,,,,,0,,,,,,,,*66::$GPGSV,3,3,21,32,38,265,31,08,01,306,,20,17,118,,25,00,000,*74::$GPVTG,,T,,M,,N,,K,N*2C::$GLGSV,3,1,21,74,47,132,22,86,02,205,17,73,34,046,21,75,10,174,26*6E",970007,2017-01-15 16:11:10:738
9.7043,-1.321,0.5902,9.6402,-1.6976,0.5968,0.0641,0.3766,-0.0066,0.046,-0.0231,0.0648,0,-14.29,-50.05,23.41,155.14,9.98,-86.45,3.1,1017.03,68.6,37.8,66.568,39.12991,-77.5443,154.84,304.6130388,,74.7,29.032257,341.8,16 / 21,"$GPRMC,,V,,,,,,,,,,N*53::$GPGSA,A,1,,,,,,,,,,,,,,,*1E::$GPGGA,,,,,,0,,,,,,,,*66::$GPGSV,3,3,21,27,04,271,15,32,38,265,29,08,01,306,,25,00,000,*70::$GPVTG,,T,,M,,N,,K,N*2C::$GLGSV,3,3,21,72,55,348,27*59",980007,2017-01-15 16:11:20:738
9.3895,-1.5808,0.8859,9.6652,-1.4543,0.7999,-0.2757,-0.1265,0.0859,0.0252,-0.0383,0.0581,0,-17.1,-50.42,22.21,155.71,8.53,-85.27,3.1,1017.3,68.6,37.7,67.44,39.13197,-77.54521,141.94,294.128779,,81,29.032257,340.8,16 / 21,"$GPRMC,170121,A,3907.917947,N,07732.712458,W,43.7,340.8,150117,0.0,E,D*30::$GPGSA,A,3,10,12,14,15,18,20,21,24,27,32,,,1.1,0.8,0.8*3B::$GPGGA,170121,3907.917947,N,07732.712458,W,2,10,0.8,86.0,M,-42.0,M,,*4F::$GPGSV,3,3,21,32,38,265,28,08,01,306,,25,00,000,,27,04,271,*75::$GPVTG,340.8,T,340.8,M,43.7,N,81.0,K,D*2F::$GLGSV,3,3,21,72,55,348,29*57",990007,2017-01-15 16:11:30:738
9.2877,-1.5538,0.7697,9.7115,-1.1762,0.6883,-0.4238,-0.3776,0.0814,0.0463,-0.0441,0.0624,0,-16.62,-50.74,22.32,156.2,6.89,-85.95,3.1,1017.54,68.7,37.4,66.248,39.133896,-77.54605,138.71,294.128779,,79.2,29.032257,341.4,16 / 21,"$GPRMC,170131,A,3908.033623,N,07732.762954,W,42.8,341.4,150117,0.0,E,D*39::$GPGSA,A,3,10,12,14,15,18,20,21,24,27,32,,,1.1,0.8,0.8*3B::$GPGGA,170131,3908.033623,N,07732.762954,W,2,10,0.8,85.0,M,-42.0,M,,*46::$GPGSV,3,3,21,32,38,265,30,08,01,306,,25,00,000,,27,04,271,*7C::$GPVTG,341.4,T,341.4,M,42.8,N,79.2,K,D*24::$GLGSV,3,3,21,86,02,205,*5D",1000007,2017-01-15 16:11:40:738
10.0114,-1.6951,1.0756,9.7015,-1.2661,0.6701,0.3099,-0.429,0.4055,0.0234,-0.0325,0.0654,0,-16.71,-50.69,22.96,155.35,7.42,-86.05,3.1,1017.89,68.7,37.3,67.51,39.135887,-77.54697,138.71,279.1524374,,86.4,29.032257,342,16 / 21,"$GPRMC,170141,A,3908.153161,N,07732.817988,W,46.7,342.0,150117,0.0,E,D*38::$GPGSA,A,3,10,12,14,15,18,20,21,24,27,32,,,1.0,0.8,0.7*35::$GPGGA,170141,3908.153161,N,07732.817988,W,2,10,0.8,85.0,M,-42.0,M,,*4B::$GPGSV,3,3,21,27,04,271,14,32,38,265,27,08,01,306,,25,00,000,*7F::$GPVTG,342.0,T,342.0,M,46.7,N,86.4,K,D*29::$GLGSV,3,3,21,86,02,205,*5D",1010007,2017-01-15 16:11:50:739
9.921,-1.1241,1.5538,9.6836,-1.0907,1.0993,0.2374,-0.0334,0.4545,-0.005,-0.0341,0.0725,0,-16.86,-50.75,17.03,160.25,6.36,-83.58,3.1,1018.19,68.7,37.3,64.102,39.13794,-77.54733,135.48,279.1524374,,78.3,32.258064,358.3,16 / 21,"$GPRMC,170151,A,3908.276399,N,07732.840362,W,42.3,358.3,150117,0.0,E,D*3C::$GPGSA,A,3,10,12,14,15,18,20,21,24,27,32,,,1.1,0.8,0.8*3B::$GPGGA,170151,3908.276399,N,07732.840362,W,2,10,0.8,84.0,M,-42.0,M,,*46::$GPGSV,3,3,21,27,04,271,13,32,38,265,27,08,01,306,,25,00,000,*78::$GPVTG,358.3,T,358.3,M,42.3,N,78.3,K,D*2F::$GLGSV,3,3,21,86,02,205,*5D",1020008,2017-01-15 16:12:00:739
8.8256,-1.3575,1.1217,9.6211,-1.4154,1.2655,-0.7955,0.0579,-0.1438,0.0133,-0.0212,0.0303,0,-16.74,-48.27,11.58,164.15,8.3,-82.51,3.1,1018.7,69,36.9,69.879,39.13996,-77.5469,116.13,260.229837,,85.5,32.258064,18.9,16 / 21,"$GPRMC,170201,A,3908.397452,N,07732.813962,W,46.2,18.9,150117,0.0,E,D*00::$GPGSA,A,3,10,12,14,15,18,20,21,24,27,32,,,1.2,0.9,0.8*39::$GPGGA,170201,3908.397452,N,07732.813962,W,2,10,0.9,78.0,M,-42.0,M,,*40::$GPGSV,3,3,21,27,04,271,13,32,38,265,31,08,01,306,,25,00,000,*7F::$GPVTG,18.9,T,18.9,M,46.2,N,85.5,K,D*2E::$GLGSV,3,3,21,86,02,205,*5D",1030007,2017-01-15 16:12:10:738
